city,state_id,county_name,lat,lng,population
New York,NY,Queens,40.6943,-73.9249,18832416
Los Angeles,CA,Los Angeles,34.1141,-118.4068,11885717
Chicago,IL,Cook,41.8375,-87.6866,8489066
Miami,FL,Miami-Dade,25.7840,-80.2101,6113982
Houston,TX,Harris,29.7860,-95.3885,6046392
Dallas,TX,Dallas,32.7935,-96.7667,5843632
Philadelphia,PA,Philadelphia,40.0077,-75.1339,5696588
Atlanta,GA,Fulton,33.7628,-84.4220,5211164
Washington,DC,District of Columbia,38.9047,-77.0163,5146120
Boston,MA,Suffolk,42.3188,-71.0852,4355184
Phoenix,AZ,Maricopa,33.5722,-112.0892,4065338
Detroit,MI,Wayne,42.3834,-83.1024,3716929
Seattle,WA,King,47.6211,-122.3244,3555253
San Francisco,CA,San Francisco,37.7558,-122.4449,3364862
San Diego,CA,San Diego,32.8313,-117.1222,3057778
Minneapolis,MN,Hennepin,44.9635,-93.2678,2906807
Tampa,FL,Hillsborough,27.9945,-82.4447,2906035
Brooklyn,NY,Kings,40.6501,-73.9496,2736074
Denver,CO,Denver,39.7620,-104.8758,2691349
Queens,NY,Queens,40.7498,-73.7976,2405464
Riverside,CA,Riverside,33.9381,-117.3949,2288508
Las Vegas,NV,Clark,36.2333,-115.2654,2256509
Baltimore,MD,Baltimore,39.3051,-76.6144,2189589
St. Louis,MO,St. Louis,38.6359,-90.2451,2127843
Portland,OR,Multnomah,45.5371,-122.6500,2084045
San Antonio,TX,Bexar,29.4632,-98.5238,2069843
Sacramento,CA,Sacramento,38.5677,-121.4685,1962998
Austin,TX,Travis,30.3005,-97.7522,1915031
Orlando,FL,Orange,28.4773,-81.3370,1913597
San Juan,PR,San Juan,18.3985,-66.0610,1809800
San Jose,CA,Santa Clara,37.3012,-121.8480,1771563
Indianapolis,IN,Marion,39.7771,-86.1458,1740984
Pittsburgh,PA,Allegheny,40.4397,-79.9763,1712828
Cincinnati,OH,Hamilton,39.1413,-84.5060,1704916
Manhattan,NY,New York,40.7834,-73.9662,1694263
Kansas City,MO,Jackson,39.1238,-94.5541,1686807
Cleveland,OH,Cuyahoga,41.4764,-81.6805,1679247
Columbus,OH,Franklin,39.9862,-82.9855,1578153
Bronx,NY,Bronx,40.8501,-73.8662,1472654
Charlotte,NC,Mecklenburg,35.2083,-80.8303,1436613
Virginia Beach,VA,Virginia Beach,36.7335,-76.0435,1431821
Jacksonville,FL,Duval,30.3322,-81.6749,1303156
Milwaukee,WI,Milwaukee,43.0642,-87.9675,1290221
Providence,RI,Providence,41.8230,-71.4187,1270529
Nashville,TN,Davidson,36.1715,-86.7842,1178679
Salt Lake City,UT,Salt Lake,40.7776,-111.9311,1169033
Raleigh,NC,Wake,35.8324,-78.6429,1150010
Richmond,VA,Richmond,37.5295,-77.4756,1081248
Memphis,TN,Shelby,35.1087,-89.9663,1033394
Oklahoma City,OK,Oklahoma,35.4676,-97.5136,1000207
Hartford,CT,Capitol,41.7661,-72.6834,969171
Louisville,KY,Jefferson,38.1663,-85.6485,965005
Buffalo,NY,Erie,42.9018,-78.8487,949547
Fort Worth,TX,Tarrant,32.7817,-97.3474,941311
Bridgeport,CT,Greater Bridgeport,41.1918,-73.1954,921660
New Orleans,LA,Orleans,30.0687,-89.9288,918752
Tucson,AZ,Pima,32.1541,-110.8787,879871
El Paso,TX,El Paso,31.8476,-106.4300,862494
Omaha,NE,Douglas,41.2627,-96.0529,826161
McAllen,TX,Hidalgo,26.2252,-98.2467,810034
Birmingham,AL,Jefferson,33.5279,-86.7971,778756
Albuquerque,NM,Bernalillo,35.1054,-106.6465,767499
Tulsa,OK,Tulsa,36.1283,-95.9042,740620
Charleston,SC,Charleston,32.8168,-79.9687,726389
Fresno,CA,Fresno,36.7830,-119.7939,724547
Rochester,NY,Monroe,43.1680,-77.6162,694707
Dayton,OH,Montgomery,39.7805,-84.2003,667936
Cape Coral,FL,Lee,26.6443,-81.9957,656464
Provo,UT,Utah,40.2457,-111.6457,639820
Colorado Springs,CO,El Paso,38.8674,-104.7605,638421
Mission Viejo,CA,Orange,33.6096,-117.6551,634674
Allentown,PA,Lehigh,40.5961,-75.4756,632175
Baton Rouge,LA,East Baton Rouge,30.4420,-91.1311,630063
Ogden,UT,Weber,41.2279,-111.9682,623688
Knoxville,TN,Knox,35.9692,-83.9496,618226
Grand Rapids,MI,Kent,42.9619,-85.6562,611480
Columbia,SC,Richland,34.0378,-80.9036,605083
Albany,NY,Albany,42.6664,-73.7987,602242
Bakersfield,CA,Kern,35.3529,-119.0359,578542
New Haven,CT,South Central Connecticut,41.3113,-72.9246,565056
Des Moines,IA,Polk,41.5725,-93.6105,560170
Palm Bay,FL,Brevard,27.9631,-80.6593,547659
Akron,OH,Summit,41.0798,-81.5219,538659
Concord,CA,Contra Costa,37.9722,-122.0016,525233
Mesa,AZ,Maricopa,33.4015,-111.7178,507478
Wichita,KS,Sedgwick,37.6895,-97.3443,501760
Harrisburg,PA,Dauphin,40.2752,-76.8843,499494
Staten Island,NY,Richmond,40.5834,-74.1496,495747
Toledo,OH,Lucas,41.6638,-83.5827,492076
Worcester,MA,Worcester,42.2705,-71.8079,487014
Port St. Lucie,FL,St. Lucie,27.2796,-80.3884,473733
Little Rock,AR,Pulaski,34.7256,-92.3577,467846
Madison,WI,Dane,43.0822,-89.3930,460255
Spokane,WA,Spokane,47.6671,-117.4330,458988
Long Beach,CA,Los Angeles,33.7977,-118.1670,458491
Denton,TX,Denton,33.2175,-97.1418,455152
Reno,NV,Washoe,39.5497,-119.8483,454814
Boise,ID,Ada,43.6005,-116.2308,449428
Bonita Springs,FL,Lee,26.3558,-81.7859,445500
Kissimmee,FL,Osceola,28.3041,-81.4169,442790
Augusta,GA,Richmond,33.3645,-82.0708,439361
Springfield,MA,Hampden,42.1155,-72.5395,438889
Oakland,CA,Alameda,37.7904,-122.2166,438072
Winston-Salem,NC,Forsyth,36.1029,-80.2610,434231
Stockton,CA,San Joaquin,37.9765,-121.3109,416005
Durham,NC,Durham,35.9792,-78.9022,411362
Chattanooga,TN,Hamilton,35.0660,-85.2481,410795
Greenville,SC,Greenville,34.8354,-82.3646,408626
Lancaster,PA,Lancaster,40.0420,-76.3012,408023
Syracuse,NY,Onondaga,43.0407,-76.1437,407625
Fayetteville,AR,Washington,36.0714,-94.1661,405556
Pensacola,FL,Escambia,30.4413,-87.1911,401535
Arlington,TX,Tarrant,32.6998,-97.1250,394769
Aurora,CO,Arapahoe,39.7083,-104.7237,390201
Scranton,PA,Lackawanna,41.4044,-75.6649,375462
Oxnard,CA,Ventura,34.1964,-119.1815,373423
Indio,CA,Riverside,33.7346,-116.2346,371926
Victorville,CA,San Bernardino,34.5277,-117.3536,363596
Trenton,NJ,Mercer,40.2237,-74.7641,362501
Huntsville,AL,Madison,34.6981,-86.6412,359389
Modesto,CA,Stanislaus,37.6375,-121.0028,355686
Honolulu,HI,Honolulu,21.3294,-157.8460,346323
Greensboro,NC,Guilford,36.0956,-79.8271,345858
Fort Wayne,IN,Allen,41.0888,-85.1436,345279
Anaheim,CA,Orange,33.8390,-117.8574,344553
Corpus Christi,TX,Nueces,27.7254,-97.3767,339432
Fort Collins,CO,Larimer,40.5477,-105.0656,339256
Antioch,CA,Contra Costa,37.9787,-121.7960,333347
Jackson,MS,Hinds,32.3157,-90.2125,331332
Fayetteville,NC,Cumberland,35.0850,-78.9772,326821
Myrtle Beach,SC,Horry,33.7094,-78.8844,325829
Henderson,NV,Clark,36.0133,-115.0381,324523
Mobile,AL,Mobile,30.6782,-88.1162,324067
Lexington,KY,Fayette,38.0423,-84.4587,321122
Lansing,MI,Ingham,42.7142,-84.5601,318001
Savannah,GA,Chatham,32.0286,-81.1821,316446
Youngstown,OH,Mahoning,41.0993,-80.6463,315751
Ann Arbor,MI,Washtenaw,42.2759,-83.7310,314647
Santa Ana,CA,Orange,33.7367,-117.8819,311639
Irvine,CA,Orange,33.6772,-117.7738,308160
St. Paul,MN,Ramsey,44.9478,-93.1039,307762
Poughkeepsie,NY,Dutchess,41.6950,-73.9211,307738
Newark,NJ,Essex,40.7245,-74.1725,307188
Santa Rosa,CA,Sonoma,38.4458,-122.7067,299986
Concord,NC,Cabarrus,35.3933,-80.6369,297379
Winter Haven,FL,Polk,28.0118,-81.7014,296830
Asheville,NC,Buncombe,35.5707,-82.5537,295040
Canton,OH,Stark,40.8078,-81.3676,293657
Lincoln,NE,Lancaster,40.8099,-96.6784,293055
Flint,MI,Genesee,43.0236,-83.6921,291688
Lakeland,FL,Polk,28.0557,-81.9545,290762
Jersey City,NJ,Hudson,40.7184,-74.0686,289691
Anchorage,AK,Anchorage,61.1508,-149.1091,289069
Springfield,MO,Greene,37.1943,-93.2916,289041
Plano,TX,Collin,33.0502,-96.7486,287339
Lubbock,TX,Lubbock,33.5657,-101.8879,283024
Davenport,IA,Scott,41.5565,-90.6053,282356
Reading,PA,Berks,40.3400,-75.9267,280030
Shreveport,LA,Caddo,32.4653,-93.7955,278269
Chandler,AZ,Maricopa,33.2825,-111.8514,278123
South Bend,IN,St. Joseph,41.6767,-86.2696,275725
Wilmington,NC,New Hanover,34.2099,-77.8866,275128
Chula Vista,CA,San Diego,32.6281,-117.0144,275030
Rockford,IL,Winnebago,42.2596,-89.0640,274256
Eugene,OR,Lane,44.0564,-123.1174,272737
Salem,OR,Marion,44.9233,-123.0244,272331
Gilbert,AZ,Maricopa,33.3100,-111.7463,271118
North Las Vegas,NV,Clark,36.2883,-115.0888,270773
Santa Clarita,CA,Los Angeles,34.4175,-118.4964,265529
Peoria,IL,Peoria,40.7520,-89.6154,262461
Tallahassee,FL,Leon,30.4551,-84.2527,261271
Killeen,TX,Bell,31.0753,-97.7297,261099
St. Petersburg,FL,Pinellas,27.7931,-82.6652,260646
Kennewick,WA,Benton,46.1978,-119.1732,260091
Columbus,GA,Muscogee,32.5100,-84.8771,257578
Laredo,TX,Webb,27.5625,-99.4874,255949
Irving,TX,Dallas,32.8583,-96.9702,255036
Round Lake Beach,IL,Lake,42.3791,-88.0811,252224
Montgomery,AL,Montgomery,32.3482,-86.2668,251545
Chesapeake,VA,Chesapeake,36.6778,-76.3023,251153
Glendale,AZ,Maricopa,33.5791,-112.2311,250193
Nashua,NH,Hillsborough,42.7491,-71.4910,247828
York,PA,York,39.9651,-76.7315,246769
Garland,TX,Dallas,32.9100,-96.6304,245298
Rock Hill,SC,York,34.9415,-81.0241,244403
Scottsdale,AZ,Maricopa,33.6872,-111.8651,242169
Aguadilla,PR,Aguadilla,18.4382,-67.1537,235546
Arlington,VA,Arlington,38.8786,-77.1011,235463
Norfolk,VA,Norfolk,36.8945,-76.2590,235037
Appleton,WI,Outagamie,44.2780,-88.3892,234701
Enterprise,NV,Clark,36.0091,-115.2278,232043
Gulfport,MS,Harrison,30.4274,-89.0704,231754
Lafayette,LA,Lafayette,30.2082,-92.0325,231548
Bremerton,WA,Kitsap,47.5436,-122.7121,228576
Fremont,CA,Alameda,37.5265,-121.9843,228518
Green Bay,WI,Brown,44.5148,-87.9895,227679
Fargo,ND,Cass,46.8651,-96.8292,225066
Deltona,FL,Volusia,28.9050,-81.2137,224303
Brownsville,TX,Cameron,25.9975,-97.4580,223416
Hialeah,FL,Miami-Dade,25.8696,-80.3045,221901
San Bernardino,CA,San Bernardino,34.1416,-117.2943,221774
Tacoma,WA,Pierce,47.2431,-122.4531,220482
Gainesville,FL,Alachua,29.6804,-82.3459,219946
Spring Valley,NV,Clark,36.0952,-115.2636,219913
Clarksville,TN,Montgomery,36.5692,-87.3413,218159
College Station,TX,Brazos,30.5852,-96.2959,215768
Olympia,WA,Thurston,47.0417,-122.8959,215677
Roanoke,VA,Roanoke,37.2785,-79.9581,214019
Portland,ME,Cumberland,43.6773,-70.2715,213660
Fontana,CA,San Bernardino,34.0968,-117.4599,211921
Spartanburg,SC,Spartanburg,34.9442,-81.9251,210388
Moreno Valley,CA,Riverside,33.9244,-117.2045,210378
Frisco,TX,Collin,33.1560,-96.8216,210238
Yonkers,NY,Westchester,40.9466,-73.8673,209529
Thousand Oaks,CA,Ventura,34.1914,-118.8756,208302
Sioux Falls,SD,Minnehaha,43.5396,-96.7311,207795
Hagerstown,MD,Washington,39.6401,-77.7217,206889
Evansville,IN,Vanderburgh,37.9881,-87.5341,206418
Amarillo,TX,Potter,35.1984,-101.8316,205100
Kalamazoo,MI,Kalamazoo,42.2749,-85.5882,204408
Lorain,OH,Lorain,41.4409,-82.1840,203802
Galveston,TX,Galveston,29.2484,-94.8913,202810
McKinney,TX,Collin,33.2016,-96.6670,202314
Huntington,WV,Cabell,38.4109,-82.4345,201208
Nampa,ID,Canyon,43.5844,-116.5638,201129
Hickory,NC,Catawba,35.7410,-81.3223,200500
Waterbury,CT,Naugatuck Valley,41.5582,-73.0361,199965
Sunrise Manor,NV,Clark,36.1783,-115.0487,199099
Grand Prairie,TX,Dallas,32.6871,-97.0208,198564
Ocala,FL,Marion,29.1780,-82.1511,197770
Waco,TX,McLennan,31.5599,-97.1882,197594
Overland Park,KS,Johnson,38.8870,-94.6870,197199
Frederick,MD,Frederick,39.4337,-77.4141,196743
Huntington Beach,CA,Orange,33.6960,-118.0018,196010
Santa Barbara,CA,Santa Barbara,34.4285,-119.7202,194950
Peoria,AZ,Maricopa,33.7843,-112.2989,194338
Cedar Rapids,IA,Linn,41.9662,-91.6783,192755
Vancouver,WA,Clark,45.6366,-122.5967,192696
Glendale,CA,Los Angeles,34.1819,-118.2468,192270
Gastonia,NC,Gaston,35.2494,-81.1854,189767
Spring Hill,FL,Hernando,28.4798,-82.5300,188743
Murfreesboro,TN,Rutherford,35.8490,-86.4121,187601
Tempe,AZ,Maricopa,33.3881,-111.9319,186419
Paradise,NV,Clark,36.0872,-115.1355,186178
Newport News,VA,Newport News,37.1051,-76.5185,184774
Erie,PA,Erie,42.1167,-80.0733,184332
Fort Lauderdale,FL,Broward,26.1412,-80.1464,183032
Gainesville,GA,Hall,34.2902,-83.8294,182116
Aurora,IL,Kane,41.7638,-88.2902,179867
Mauldin,SC,Greenville,34.7821,-82.3032,179196
Ontario,CA,San Bernardino,34.0393,-117.6064,178347
Elk Grove,CA,Sacramento,38.4161,-121.3842,177221
Panama City,FL,Bay,30.1995,-85.6003,177125
Cary,NC,Wake,35.7819,-78.8195,176686
Hemet,CA,Riverside,33.7341,-116.9969,176009
Danbury,CT,Western Connecticut,41.4015,-73.4709,175074
Rancho Cucamonga,CA,San Bernardino,34.1247,-117.5667,174693
Salinas,CA,Monterey,36.6883,-121.6317,172995
Oceanside,CA,San Diego,33.2247,-117.3083,172542
Vallejo,CA,Solano,38.1125,-122.2342,171414
High Point,NC,Guilford,35.9910,-79.9937,171342
Garden Grove,CA,Orange,33.7787,-117.9601,170603
Pembroke Pines,FL,Broward,26.0128,-80.3382,170557
Lancaster,CA,Los Angeles,34.6935,-118.1753,170013
Marysville,WA,Snohomish,48.0809,-122.1561,168664
Bayamón,PR,Bayamón,18.3794,-66.1635,167312
Fredericksburg,VA,Fredericksburg,38.2992,-77.4872,166746
Visalia,CA,Tulare,36.3276,-119.3269,166273
Tuscaloosa,AL,Tuscaloosa,33.2348,-87.5268,166253
Palmdale,CA,Los Angeles,34.5944,-118.1057,165487
Santa Cruz,CA,Santa Cruz,36.9789,-122.0346,165263
Medford,OR,Jackson,42.3372,-122.8540,164628
Norwich,CT,Southeastern Connecticut,41.5495,-72.0882,163299
Merced,CA,Merced,37.3057,-120.4779,163257
Manchester,NH,Hillsborough,42.9848,-71.4447,162716
Odessa,TX,Ector,31.8801,-102.3448,162648
Muskegon,MI,Muskegon,43.2281,-86.2562,162458
Leesburg,FL,Lake,28.7672,-81.8962,161515
Lafayette,IN,Tippecanoe,40.3991,-86.8593,160373
Hayward,CA,Alameda,37.6328,-122.0766,159201
Corona,CA,Riverside,33.8616,-117.5649,158839
Paterson,NJ,Passaic,40.9147,-74.1624,157660
Alexandria,VA,Alexandria,38.8185,-77.0861,156788
Macon,GA,Bibb,32.8065,-83.6974,156543
Lakewood,CO,Jefferson,39.6977,-105.1172,156309
Springfield,IL,Sangamon,39.7709,-89.6540,156240
Kansas City,KS,Wyandotte,39.1235,-94.7443,154776
Burlington,NC,Alamance,36.0760,-79.4685,154504
Warner Robins,GA,Houston,32.5961,-83.6527,154327
Sunnyvale,CA,Santa Clara,37.3836,-122.0255,153455
Hollywood,FL,Broward,26.0293,-80.1679,152935
Roseville,CA,Placer,38.7703,-121.3196,152438
New Bedford,MA,Bristol,41.6697,-70.9428,152104
South Lyon,MI,Oakland,42.4614,-83.6526,151231
Bellevue,WA,King,47.5951,-122.1535,151199
Fairfield,CA,Solano,38.2583,-122.0335,150794
Binghamton,NY,Broome,42.1014,-75.9093,150564
Topeka,KS,Shawnee,39.0346,-95.6955,150343
Escondido,CA,San Diego,33.1348,-117.0723,149913
Joliet,IL,Will,41.5188,-88.1499,149785
Surprise,AZ,Maricopa,33.6815,-112.4515,149519
Naperville,IL,DuPage,41.7480,-88.1659,149424
Pasadena,TX,Harris,29.6575,-95.1498,149345
Mesquite,TX,Dallas,32.7602,-96.5865,148848
Champaign,IL,Champaign,40.1142,-88.2737,148477
Pomona,CA,Los Angeles,34.0585,-117.7626,148391
Houma,LA,Terrebonne,29.5800,-90.7059,147841
Athens,GA,Clarke,33.9508,-83.3689,147368
St. George,UT,Washington,37.0758,-113.5752,147347
Beaumont,TX,Jefferson,30.0849,-94.1451,146554
Elkhart,IN,Elkhart,41.6916,-85.9627,146511
Lake Charles,LA,Calcasieu,30.2010,-93.2111,145110
Santa Maria,CA,Santa Barbara,34.9333,-120.4431,144857
Yuma,AZ,Yuma,32.5995,-114.5491,144509
Olathe,KS,Johnson,38.8833,-94.8200,143720
Midland,TX,Midland,32.0243,-102.1147,143714
Greeley,CO,Weld,40.4152,-104.7706,143554
Torrance,CA,Los Angeles,33.8346,-118.3416,143499
Thornton,CO,Adams,39.9197,-104.9438,142878
Las Cruces,NM,Doña Ana,32.3265,-106.7893,142432
Columbia,MO,Boone,38.9472,-92.3268,141811
Fullerton,CA,Orange,33.8841,-117.9279,141278
Grand Junction,CO,Mesa,39.0877,-108.5673,141008
Carolina,PR,Carolina,18.4054,-65.9792,139051
Metairie,LA,Jefferson,29.9977,-90.1780,138995
Orange,CA,Orange,33.8038,-117.8218,138723
Warren,MI,Macomb,42.4934,-83.0270,138128
West Valley City,UT,Salt Lake,40.6886,-112.0123,137955
Hampton,VA,Hampton,37.0551,-76.3630,137334
Pasadena,CA,Los Angeles,34.1597,-118.1390,136462
Miramar,FL,Broward,25.9773,-80.3351,135986
Elizabeth,NJ,Union,40.6658,-74.1913,135887
Stamford,CT,Western Connecticut,41.1039,-73.5585,135806
Racine,WI,Racine,42.7274,-87.8135,135512
Kent,WA,King,47.3887,-122.2128,135015
Yakima,WA,Yakima,46.5923,-120.5496,134003
Coral Springs,FL,Broward,26.2702,-80.2591,133962
Sterling Heights,MI,Macomb,42.5809,-83.0305,133473
Billings,MT,Yellowstone,45.7891,-108.5526,133173
Bloomington,IL,McLean,40.4757,-88.9703,133107
Charleston,WV,Kanawha,38.3484,-81.6322,133045
Carrollton,TX,Dallas,32.9890,-96.8999,132741
Tyler,TX,Smith,32.3184,-95.3062,131037
Iowa City,IA,Johnson,41.6559,-91.5303,129897
Johnson City,TN,Washington,36.3406,-82.3806,129818
Santa Clara,CA,Santa Clara,37.3646,-121.9680,129239
Bellingham,WA,Whatcom,48.7548,-122.4690,128737
Norman,OK,Cleveland,35.2335,-97.3471,128714
Coeur d'Alene,ID,Kootenai,47.7040,-116.7936,128680
Fort Smith,AR,Sebastian,35.3495,-94.3695,128384
Lewisville,TX,Denton,33.0454,-96.9815,128313
Dover,DE,Kent,39.1610,-75.5202,128045
Yuba City,CA,Sutter,39.1357,-121.6383,127854
Lehigh Acres,FL,Lee,26.6120,-81.6388,127391
Abilene,TX,Taylor,32.4543,-99.7384,127130
Simi Valley,CA,Ventura,34.2663,-118.7490,126503
Pearland,TX,Brazoria,29.5581,-95.3218,125983
Kenosha,WI,Kenosha,42.5865,-87.8773,125807
Arecibo,PR,Arecibo,18.4491,-66.7387,125548
Meridian,ID,Ada,43.6116,-116.3977,124865
Round Rock,TX,Williamson,30.5270,-97.6642,124288
Waldorf,MD,Charles,38.6085,-76.9194,124186
Temple,TX,Bell,31.1068,-97.3891,123932
Lynchburg,VA,Lynchburg,37.4003,-79.1909,123662
Rochester,MN,Olmsted,44.0154,-92.4780,123252
Logan,UT,Cache,41.7399,-111.8422,122915
Arvada,CO,Jefferson,39.8320,-105.1510,122835
Clovis,CA,Fresno,36.8278,-119.6830,122719
Independence,MO,Jackson,39.0871,-94.3501,121944
Redding,CA,Shasta,40.5698,-122.3650,120849
Greenville,NC,Pitt,35.5943,-77.3760,120595
Duluth,MN,St. Louis,46.7756,-92.1393,120443
Berkeley,CA,Alameda,37.8722,-122.2760,120223
Boulder,CO,Boulder,40.0248,-105.2524,120121
Pueblo,CO,Pueblo,38.2701,-104.6114,120020
West Palm Beach,FL,Palm Beach,26.7469,-80.1320,119508
Burlington,VT,Chittenden,44.4876,-73.2316,118409
Seaside,CA,Monterey,36.6224,-121.8199,118398
Richardson,TX,Dallas,32.9716,-96.7093,118269
Cambridge,MA,Middlesex,42.3759,-71.1185,117794
Monroe,LA,Ouachita,32.5185,-92.0774,117507
North Charleston,SC,Charleston,32.9067,-80.0722,117460
Saginaw,MI,Saginaw,43.4199,-83.9501,117412
Clearwater,FL,Pinellas,27.9790,-82.7623,117075
The Woodlands,TX,Montgomery,30.1738,-95.5134,116916
Brandon,FL,Hillsborough,27.9367,-82.3000,116365
St. Cloud,MN,Stearns,45.5340,-94.1718,116347
West Jordan,UT,Salt Lake,40.6024,-112.0008,116277
Broken Arrow,OK,Tulsa,36.0380,-95.7806,115919
Harlingen,TX,Cameron,26.1916,-97.6977,115767
Kailua,HI,Honolulu,21.3920,-157.7396,115634
Westminster,CO,Adams,39.8837,-105.0624,115546
Gilroy,CA,Santa Clara,37.0046,-121.5854,115448
Richmond,CA,Contra Costa,37.9477,-122.3389,115396
Mandeville,LA,St. Tammany,30.3751,-90.0904,115292
Utica,NY,Oneida,43.0962,-75.2261,114961
Ponce,PR,Ponce,18.0127,-66.6212,114940
League City,TX,Galveston,29.4874,-95.1087,114885
Port Arthur,TX,Jefferson,29.8554,-93.9264,114860
Lowell,MA,Middlesex,42.6389,-71.3217,114799
East Los Angeles,CA,Los Angeles,34.0326,-118.1691,114617
Carlsbad,CA,San Diego,33.1246,-117.2834,114500
Elgin,IL,Kane,42.0383,-88.3240,114106
Waterloo,IA,Black Hawk,42.4918,-92.3522,113832
Leominster,MA,Worcester,42.5209,-71.7717,113462
Bend,OR,Deschutes,44.0563,-121.3095,113454
Sioux City,IA,Woodbury,42.4959,-96.3901,112823
Gresham,OR,Multnomah,45.5021,-122.4413,112818
Longview,TX,Gregg,32.5193,-94.7622,112687
Pompano Beach,FL,Broward,26.2428,-80.1312,112212
Downey,CA,Los Angeles,33.9379,-118.1311,111793
Murrieta,CA,Riverside,33.5719,-117.1909,111621
Idaho Falls,ID,Bonneville,43.4871,-112.0362,111295
Miami Gardens,FL,Miami-Dade,25.9433,-80.2426,111264
Everett,WA,Snohomish,47.9525,-122.1669,111083
Holland,MI,Ottawa,42.7677,-86.0984,110905
Costa Mesa,CA,Orange,33.6667,-117.9135,110538
Temecula,CA,Riverside,33.4928,-117.1315,110404
Jacksonville,NC,Onslow,34.7289,-77.3941,109958
San Buenaventura,CA,Ventura,34.2741,-119.2314,109900
Sugar Land,TX,Fort Bend,29.5935,-95.6358,109735
Chico,CA,Butte,39.7578,-121.8161,109411
South Fulton,GA,Fulton,33.6273,-84.5800,109157
Sparks,NV,Washoe,39.5736,-119.7161,109106
Eau Claire,WI,Eau Claire,44.8197,-91.4948,108477
Auburn,AL,Lee,32.6087,-85.4903,108327
Dearborn,MI,Wayne,42.3127,-83.2130,107846
Riverview,FL,Hillsborough,27.8227,-82.3023,107776
Allen,TX,Collin,33.1088,-96.6735,107684
West Covina,CA,Los Angeles,34.0555,-117.9113,107436
Centennial,CO,Arapahoe,39.5926,-104.8673,107386
Bloomington,IN,Monroe,39.1637,-86.5257,107262
Sandy Springs,GA,Fulton,33.9366,-84.3703,107198
El Monte,CA,Los Angeles,34.0739,-118.0291,107066
Hillsboro,OR,Washington,45.5273,-122.9360,107050
Menifee,CA,Riverside,33.6909,-117.1849,107020
Rio Rancho,NM,Sandoval,35.2873,-106.6982,106533
Davie,FL,Broward,26.0789,-80.2870,106412
Jurupa Valley,CA,Riverside,34.0010,-117.4706,106244
Columbia,MD,Howard,39.2004,-76.8590,105871
Inglewood,CA,Los Angeles,33.9566,-118.3444,105575
Spokane Valley,WA,Spokane,47.6626,-117.2346,105460
Renton,WA,King,47.4784,-122.1918,105279
San Tan Valley,AZ,Pinal,33.1786,-111.5629,105231
Burbank,CA,Los Angeles,34.1879,-118.3235,105165
Brockton,MA,Plymouth,42.0821,-71.0242,105080
El Cajon,CA,San Diego,32.8017,-116.9604,104909
Rialto,CA,San Bernardino,34.1175,-117.3892,103866
San Mateo,CA,San Mateo,37.5522,-122.3121,103555
Goodyear,AZ,Maricopa,33.2614,-112.3622,102891
Charlottesville,VA,Charlottesville,38.0375,-78.4855,102802
Lafayette,CO,Boulder,39.9946,-105.0998,102615
Lee's Summit,MO,Jackson,38.9171,-94.3816,102583
Edinburg,TX,Hidalgo,26.3196,-98.1597,102561
Daly City,CA,San Mateo,37.6862,-122.4685,102560
Wichita Falls,TX,Wichita,33.9072,-98.5291,102558
Bowling Green,KY,Warren,36.9716,-86.4378,102247
Longmont,CO,Boulder,40.1686,-105.1005,102183
Vacaville,CA,Solano,38.3587,-121.9673,102085
Highlands Ranch,CO,Douglas,39.5419,-104.9708,101437
Quincy,MA,Norfolk,42.2506,-71.0187,101361
Fishers,IN,Hamilton,39.9588,-85.9659,100918
Lynn,MA,Essex,42.4781,-70.9664,100905
Norwalk,CA,Los Angeles,33.9069,-118.0829,100713
Carmel,IN,Hamilton,39.9650,-86.1460,100501
Hesperia,CA,San Bernardino,34.3975,-117.3147,100141
St. Augustine,FL,St. Johns,29.8976,-81.3100,99936
Buckeye,AZ,Maricopa,33.4314,-112.6429,99844
San Angelo,TX,Tom Green,31.4424,-100.4504,99507
Federal Way,WA,King,47.3091,-122.3358,99232
Bismarck,ND,Burleigh,46.8143,-100.7694,99060
Boca Raton,FL,Palm Beach,26.3752,-80.1080,98833
New Braunfels,TX,Comal,29.6994,-98.1148,98700
Vista,CA,San Diego,33.1896,-117.2386,98646
Beaverton,OR,Washington,45.4779,-122.8168,97502
Portsmouth,VA,Portsmouth,36.8468,-76.3540,97299
Orem,UT,Utah,40.2981,-111.6994,97048
Conroe,TX,Montgomery,30.3238,-95.4824,96976
Suffolk,VA,Suffolk,36.6953,-76.6398,96638
Sunrise,FL,Broward,26.1547,-80.2997,96633
Lawrence,KS,Douglas,38.9597,-95.2642,96380
Arden-Arcade,CA,Sacramento,38.6017,-121.3845,96319
Prescott Valley,AZ,Yavapai,34.5980,-112.3185,96190
Middletown,OH,Butler,39.5033,-84.3659,95894
San Germán,PR,San Germán,18.0827,-67.0460,95622
Edmond,OK,Oklahoma,35.6689,-97.4160,95618
Tracy,CA,San Joaquin,37.7269,-121.4523,95358
Manteca,CA,San Joaquin,37.7927,-121.2264,95347
Kingsport,TN,Sullivan,36.5224,-82.5454,95059
Portsmouth,NH,Rockingham,43.0580,-70.7826,94815
Sandy,UT,Salt Lake,40.5709,-111.8506,94723
Palm Coast,FL,Flagler,29.5389,-81.2457,94362
Slidell,LA,St. Tammany,30.2887,-89.7828,94220
San Marcos,CA,San Diego,33.1350,-117.1743,94078
Livonia,MI,Wayne,42.3972,-83.3733,94058
Santa Fe,NM,Santa Fe,35.6619,-105.9819,94032
Plantation,FL,Broward,26.1259,-80.2617,94002
Atascocita,TX,Harris,29.9777,-95.1953,93926
Fall River,MA,Bristol,41.7136,-71.1015,93764
Compton,CA,Los Angeles,33.8930,-118.2274,93525
Carson,CA,Los Angeles,33.8374,-118.2559,93523
La Crosse,WI,La Crosse,43.8241,-91.2268,93163
Missoula,MT,Missoula,46.8751,-114.0214,92942
O'Fallon,MO,St. Charles,38.7850,-90.7175,92697
Mount Pleasant,SC,Charleston,32.8537,-79.8203,92662
Roswell,GA,Fulton,34.0391,-84.3513,92577
Hoover,AL,Jefferson,33.3763,-86.8068,92401
Florence,SC,Florence,34.1780,-79.7898,92315
Williamsburg,VA,Williamsburg,37.2693,-76.7076,91935
South Gate,CA,Los Angeles,33.9447,-118.1926,91836
Chino,CA,San Bernardino,33.9836,-117.6654,91775
Fort Myers,FL,Lee,26.6194,-81.8302,91730
Kirkland,WA,King,47.6970,-122.2057,91614
Santa Monica,CA,Los Angeles,34.0235,-118.4810,91535
Vineland,NJ,Cumberland,39.4653,-74.9981,91393
Norwalk,CT,Western Connecticut,41.1144,-73.4215,91375
Alafaya,FL,Orange,28.5280,-81.1868,90874
Lawton,OK,Comanche,34.6175,-98.4202,90662
Avondale,AZ,Maricopa,33.3873,-112.3235,90644
Germantown,MD,Montgomery,39.1755,-77.2643,90521
Rapid City,SD,Pennington,44.0716,-103.2204,90421
Westminster,CA,Orange,33.7523,-117.9938,90147
Clifton,NJ,Passaic,40.8630,-74.1575,89247
Waukegan,IL,Lake,42.3698,-87.8716,88919
Bloomington,MN,Hennepin,44.8306,-93.3151,88838
Mayagüez,PR,Mayagüez,18.2003,-67.1397,88722
San Leandro,CA,Alameda,37.7074,-122.1599,88531
Newton,MA,Middlesex,42.3316,-71.2085,88504
Joplin,MO,Jasper,37.0757,-94.5018,88490
Lawrence,MA,Essex,42.7002,-71.1626,88297
Springdale,AR,Washington,36.1901,-94.1574,87388
Troy,MI,Oakland,42.5817,-83.1457,87307
Citrus Heights,CA,Sacramento,38.6948,-121.2880,87036
Deerfield Beach,FL,Broward,26.3050,-80.1277,86742
Town 'n' Country,FL,Hillsborough,28.0106,-82.5763,86544
Winchester,VA,Winchester,39.1735,-78.1746,86501
Mission,TX,Hidalgo,26.2039,-98.3256,86234
Bryan,TX,Brazos,30.6650,-96.3807,86169
Hawthorne,CA,Los Angeles,33.9147,-118.3476,85933
Whittier,CA,Los Angeles,33.9678,-118.0188,85925
Livermore,CA,Alameda,37.6868,-121.7607,85870
Lake Forest,CA,Orange,33.6605,-117.6714,85846
San Ramon,CA,Contra Costa,37.7624,-121.9365,85734
Melbourne,FL,Brevard,28.1086,-80.6627,85718
Franklin,TN,Williamson,35.9200,-86.8516,85575
Auburn,WA,King,47.3039,-122.2108,85455
Port Huron,MI,St. Clair,42.9821,-82.4388,85051
Decatur,IL,Macon,39.8557,-88.9342,84629
Baytown,TX,Harris,29.7587,-94.9671,84538
Brooklyn Park,MN,Hennepin,45.1112,-93.3505,84349
Springfield,OH,Clark,39.9300,-83.7959,84309
Newport Beach,CA,Orange,33.6151,-117.8668,84304
Westland,MI,Wayne,42.3192,-83.3805,84155
Newark,OH,Licking,40.0706,-82.4250,83890
Muncie,IN,Delaware,40.1989,-85.3950,83477
Farmington Hills,MI,Oakland,42.4860,-83.3771,83316
Cicero,IL,Cook,41.8445,-87.7593,83223
Buena Park,CA,Orange,33.8572,-118.0046,83052
Warwick,RI,Kent,41.7062,-71.4334,82871
Hattiesburg,MS,Forrest,31.3074,-89.3170,82730
Cranston,RI,Providence,41.7658,-71.4858,82632
Albany,GA,Dougherty,31.5776,-84.1762,82612
Layton,UT,Davis,41.0770,-111.9620,82512
Madera,CA,Madera,36.9630,-120.0778,82510
Largo,FL,Pinellas,27.9088,-82.7712,82506
Redwood City,CA,San Mateo,37.5025,-122.2253,82423
Mountain View,CA,Santa Clara,37.4001,-122.0796,82363
Pine Hills,FL,Orange,28.5818,-81.4692,82264
Folsom,CA,Sacramento,38.6668,-121.1422,82140
Silver Spring,MD,Montgomery,39.0028,-77.0207,82129
Johns Creek,GA,Fulton,34.0333,-84.2027,82115
The Villages,FL,Sumter,28.9034,-81.9887,82108
Owensboro,KY,Daviess,37.7575,-87.1172,81734
Napa,CA,Napa,38.2975,-122.3010,81643
New Rochelle,NY,Westchester,40.9304,-73.7836,81591
Alhambra,CA,Los Angeles,34.0840,-118.1355,81483
Cheyenne,WY,Laramie,41.1350,-104.7902,81378
Miami Beach,FL,Miami-Dade,25.8171,-80.1396,81319
Wenatchee,WA,Chelan,47.4360,-120.3295,81106
Jackson,MI,Jackson,42.2431,-84.4038,81058
Lehi,UT,Utah,40.4136,-111.8725,81039
Anderson,IN,Madison,40.0891,-85.6892,80820
Homestead,FL,Miami-Dade,25.4665,-80.4472,80725
Florence,AL,Lauderdale,34.8303,-87.6655,80720
Rancho Cordova,CA,Sacramento,38.5737,-121.2527,80656
Morgantown,WV,Monongalia,39.6383,-79.9464,80626
Boynton Beach,FL,Palm Beach,26.5281,-80.0811,80601
Somerville,MA,Middlesex,42.3908,-71.1014,80549
North Port,FL,Sarasota,27.0576,-82.1977,80512
Lakewood,CA,Los Angeles,33.8471,-118.1222,80510
Salisbury,MD,Wicomico,38.3756,-75.5865,80352
South Jordan,UT,Salt Lake,40.5570,-111.9784,80331
Parma,OH,Cuyahoga,41.3843,-81.7286,80131
Pharr,TX,Hidalgo,26.1685,-98.1904,79809
State College,PA,Centre,40.7909,-77.8567,79803
Plymouth,MN,Hennepin,45.0225,-93.4617,79526
Turlock,CA,Stanislaus,37.5053,-120.8588,79394
Davis,CA,Yolo,38.5553,-121.7370,79355
Perris,CA,Riverside,33.7898,-117.2233,79349
Jonesboro,AR,Craighead,35.8212,-90.6791,79187
Tustin,CA,Orange,33.7311,-117.8107,79035
Terre Haute,IN,Vigo,39.4660,-87.3751,78940
Upland,CA,San Bernardino,34.1178,-117.6604,78940
Georgetown,TX,Williamson,30.6660,-97.6966,78803
Texarkana,TX,Bowie,33.4500,-94.0847,78541
Kendall,FL,Miami-Dade,25.6697,-80.3556,78527
Pasco,WA,Franklin,46.2506,-119.1305,78446
Milpitas,CA,Santa Clara,37.4336,-121.8921,78216
Carmichael,CA,Sacramento,38.6318,-121.3263,78070
Chino Hills,CA,San Bernardino,33.9508,-117.7254,78024
Flower Mound,TX,Denton,33.0343,-97.1146,77886
Flagstaff,AZ,Coconino,35.1872,-111.6194,77868
Alton,IL,Madison,38.9037,-90.1520,77583
Pleasanton,CA,Alameda,37.6663,-121.8805,77500
Cedar Park,TX,Williamson,30.5105,-97.8197,77474
Bellflower,CA,Los Angeles,33.8880,-118.1271,77396
Loveland,CO,Larimer,40.4166,-105.0623,77350
Mansfield,OH,Richland,40.7656,-82.5275,77137
Hammond,IN,Lake,41.6168,-87.4909,77098
Bethlehem,PA,Northampton,40.6266,-75.3679,77069
Woodbury,MN,Washington,44.9057,-92.9230,76945
Alameda,CA,Alameda,37.7668,-122.2670,76876
Wyoming,MI,Kent,42.8908,-85.7066,76865
Schaumburg,IL,Cook,42.0308,-88.0838,76780
Castle Rock,CO,Douglas,39.3763,-104.8535,76614
Evanston,IL,Cook,42.0464,-87.6943,76552
Doral,FL,Miami-Dade,25.8152,-80.3565,76490
St. Joseph,MO,Buchanan,39.7598,-94.8210,76484
Valdosta,GA,Lowndes,30.8502,-83.2788,76393
Wausau,WI,Marathon,44.9620,-89.6459,76386
Pocatello,ID,Bannock,42.8724,-112.4647,76370
Elizabethtown,KY,Hardin,37.7031,-85.8773,76363
Anniston,AL,Calhoun,33.6712,-85.8135,76228
Arlington Heights,IL,Cook,42.0955,-87.9826,76220
Rochester Hills,MI,Oakland,42.6645,-83.1563,76086
Southfield,MI,Oakland,42.4765,-83.2605,76025
Daytona Beach,FL,Volusia,29.1995,-81.0982,75924
Pittsburg,CA,Contra Costa,38.0182,-121.8965,75868
Oshkosh,WI,Winnebago,44.0227,-88.5619,75850
Redmond,WA,King,47.6763,-122.1169,75721
Saratoga Springs,NY,Saratoga,43.0674,-73.7775,75599
Apple Valley,CA,San Bernardino,34.5352,-117.2109,75478
Mansfield,TX,Tarrant,32.5690,-97.1213,75398
Pawtucket,RI,Providence,41.8744,-71.3743,75280
Missouri City,TX,Fort Bend,29.5630,-95.5365,75234
Broomfield,CO,Broomfield,39.9542,-105.0526,75110
Janesville,WI,Rock,42.6854,-89.0135,74640
San Marcos,TX,Hays,29.8734,-97.9356,74469
Camarillo,CA,Ventura,34.2230,-119.0321,74210
Jackson,TN,Madison,35.6538,-88.8354,74049
Dothan,AL,Houston,31.2336,-85.4070,74002
Sherman,TX,Grayson,33.6273,-96.6221,73984
Lauderhill,FL,Broward,26.1605,-80.2241,73961
Harrisonburg,VA,Harrisonburg,38.4362,-78.8735,73926
Bolingbrook,IL,Will,41.6901,-88.1021,73813
Ellicott City,MD,Howard,39.2774,-76.8345,73737
Alexandria,LA,Rapides,31.2923,-92.4702,73457
Battle Creek,MI,Calhoun,42.2985,-85.2296,73448
New Britain,CT,Capitol,41.6759,-72.7862,73301
Sheboygan,WI,Sheboygan,43.7403,-87.7316,73268
Brunswick,GA,Glynn,31.1449,-81.4746,73159
Altoona,PA,Blair,40.5082,-78.4007,73070
Lodi,CA,San Joaquin,38.1218,-121.2932,72996
Redlands,CA,San Bernardino,34.0512,-117.1712,72985
Caguas,PR,Caguas,18.2319,-66.0388,72862
Dale City,VA,Prince William,38.6473,-77.3459,72793
Glen Burnie,MD,Anne Arundel,39.1560,-76.6071,72772
Mount Vernon,NY,Westchester,40.9136,-73.8291,72528
Lakeville,MN,Dakota,44.6774,-93.2520,72480
Dover,NH,Strafford,43.1887,-70.8845,72476
Lebanon,PA,Lebanon,40.3412,-76.4228,72475
Rocklin,CA,Placer,38.8075,-121.2489,72340
Framingham,MA,Middlesex,42.3085,-71.4368,72013
Wesley Chapel,FL,Pasco,28.2106,-82.3238,71965
Noblesville,IN,Hamilton,40.0355,-86.0042,71940
Tamarac,FL,Broward,26.2056,-80.2539,71887
Centreville,VA,Fairfax,38.8390,-77.4389,71885
Poinciana,FL,Polk,28.1217,-81.4821,71665
Fairbanks,AK,Fairbanks North Star,64.8353,-147.6533,71555
Lake Elsinore,CA,Riverside,33.6847,-117.3344,71516
Camden,NJ,Camden,39.9361,-75.1073,71471
Rogers,AR,Benton,36.3170,-94.1531,71411
Blaine,MN,Anoka,45.1696,-93.2077,71261
Wilmington,DE,New Castle,39.7415,-75.5416,71124
St. Charles,MO,St. Charles,38.7954,-90.5157,71048
Blacksburg,VA,Montgomery,37.2300,-80.4279,71014
Waukesha,WI,Waukesha,43.0087,-88.2464,70779
Casas Adobes,AZ,Pima,32.3423,-111.0113,70770
Baldwin Park,CA,Los Angeles,34.0829,-117.9722,70720
Cleveland,TN,Bradley,35.1817,-84.8707,70578
Dublin,CA,Alameda,37.7161,-121.8963,70542
Ankeny,IA,Polk,41.7288,-93.6031,70542
Maple Grove,MN,Hennepin,45.1089,-93.4626,70539
Bayonne,NJ,Hudson,40.6668,-74.1158,70468
North Richland Hills,TX,Tarrant,32.8604,-97.2180,70338
Eastvale,CA,Riverside,33.9617,-117.5803,70179
Guaynabo,PR,Guaynabo,18.3832,-66.1134,70087
Glens Falls,NY,Warren,43.3109,-73.6458,70005
Longview,WA,Cowlitz,46.1461,-122.9630,70004
Tulare,CA,Tulare,36.1995,-119.3400,69984
Conway,AR,Faulkner,35.0753,-92.4692,69918
West Des Moines,IA,Polk,41.5521,-93.7806,69893
Redondo Beach,CA,Los Angeles,33.8577,-118.3765,69814
Walnut Creek,CA,Contra Costa,37.9024,-122.0399,69790
Passaic,NJ,Passaic,40.8574,-74.1282,69651
Porterville,CA,Tulare,36.0643,-119.0338,69616
Maricopa,AZ,Pinal,33.0408,-112.0011,69554
Fajardo,PR,Fajardo,18.3331,-65.6589,69381
Spring Hill,TN,Maury,35.7437,-86.9116,69298
Gaithersburg,MD,Montgomery,39.1346,-77.2131,69225
El Paso de Robles,CA,San Luis Obispo,35.6394,-120.6560,69218
East Orange,NJ,Essex,40.7651,-74.2117,69183
Sumter,SC,Sumter,33.9392,-80.3930,68914
Grand Forks,ND,Grand Forks,47.9214,-97.0884,68853
Bristol,TN,Sullivan,36.5572,-82.2154,68737
Michigan City,IN,LaPorte,41.7092,-86.8690,68617
Gary,IN,Lake,41.5905,-87.3473,68604
Dubuque,IA,Dubuque,42.5002,-90.7070,68567
Schenectady,NY,Schenectady,42.8025,-73.9275,68521
Casper,WY,Natrona,42.8420,-106.3208,68438
Hanford,CA,Kings,36.3274,-119.6549,68276
Shawnee,KS,Johnson,39.0158,-94.8076,68175
South Hill,WA,Pierce,47.1198,-122.2853,68161
Eagan,MN,Dakota,44.8170,-93.1638,68158
Union City,CA,Alameda,37.6032,-122.0181,68141
Weston,FL,Broward,26.1006,-80.4054,67952
Kankakee,IL,Kankakee,41.1020,-87.8643,67925
Leander,TX,Williamson,30.5728,-97.8618,67880
Hammond,LA,Tangipahoa,30.5061,-90.4563,67874
Corvallis,OR,Benton,44.5698,-123.2779,67769
Apex,NC,Wake,35.7237,-78.8743,67765
Yorba Linda,CA,Orange,33.8890,-117.7714,67407
Bethesda,MD,Montgomery,38.9866,-77.1188,67403
Haverhill,MA,Essex,42.7838,-71.0871,67387
Palo Alto,CA,Santa Clara,37.3905,-122.1468,67231
Rockville,MD,Montgomery,39.0834,-77.1553,67218
Spring,TX,Harris,30.0613,-95.3830,67103
Delray Beach,FL,Palm Beach,26.4550,-80.0905,66940
Watsonville,CA,Santa Cruz,36.9206,-121.7708,66842
Mount Vernon,WA,Skagit,48.4203,-122.3115,66704
Palatine,IL,Cook,42.1180,-88.0430,66548
Victoria,TX,Victoria,28.8287,-96.9849,66523
Skokie,IL,Cook,42.0360,-87.7400,66427
Morristown,TN,Hamblen,36.2043,-83.3001,66407
Sammamish,WA,King,47.6017,-122.0416,66375
Union City,NJ,Hudson,40.7675,-74.0323,66375
Queen Creek,AZ,Maricopa,33.2454,-111.6173,66369
Alpharetta,GA,Fulton,34.0704,-84.2738,66355
Lima,OH,Allen,40.7410,-84.1120,66286
Novi,MI,Oakland,42.4786,-83.4893,66224
Great Falls,MT,Cascade,47.5022,-111.2996,66175
Ames,IA,Story,42.0256,-93.6217,66112
Juana Díaz,PR,Juana Díaz,18.0532,-66.5044,66102
Malden,MA,Middlesex,42.4305,-71.0576,65509
Dundalk,MD,Baltimore,39.2704,-76.4942,65441
Albany,OR,Linn,44.6272,-123.0965,65410
Castro Valley,CA,Alameda,37.7088,-122.0626,65389
Dalton,GA,Whitfield,34.7690,-84.9720,65317
Lynwood,CA,Los Angeles,33.9240,-118.2016,65291
Pflugerville,TX,Travis,30.4515,-97.6018,65162
Sebring,FL,Highlands,27.4770,-81.4530,65138
Kenner,LA,Jefferson,30.0109,-90.2549,65113
Port Charlotte,FL,Charlotte,26.9918,-82.1140,64971
Waltham,MA,Middlesex,42.3889,-71.2423,64723
Commerce City,CO,Adams,39.8641,-104.8430,64640
Brentwood,CA,Contra Costa,37.9356,-121.7190,64609
North Little Rock,AR,Pulaski,34.7807,-92.2371,64504
South San Francisco,CA,San Mateo,37.6538,-122.4196,64487
Bellevue,NE,Sarpy,41.1485,-95.9390,64355
Burnsville,MN,Dakota,44.7648,-93.2793,64295
Greenwood,IN,Johnson,39.6019,-86.1073,64237
Rowlett,TX,Dallas,32.9155,-96.5489,64139
Laguna Niguel,CA,Orange,33.5275,-117.7050,64023
Bozeman,MT,Gallatin,45.6833,-111.0558,63917
Port Orange,FL,Volusia,29.1085,-81.0137,63818
Reston,VA,Fairfax,38.9497,-77.3461,63542
San Clemente,CA,Orange,33.4499,-117.6102,63510
Caldwell,ID,Canyon,43.6453,-116.6594,63465
Coon Rapids,MN,Anoka,45.1755,-93.3094,63348
Millcreek,UT,Salt Lake,40.6892,-111.8292,63342
Eden Prairie,MN,Hennepin,44.8488,-93.4595,63249
Parkersburg,WV,Wood,39.2623,-81.5420,63236
Hamilton,OH,Butler,39.3939,-84.5653,63124
Moore,OK,Cleveland,35.3293,-97.4757,63045
Lakewood,WA,Pierce,47.1628,-122.5299,63034
Bay City,MI,Bay,43.5902,-83.8887,62979
Bossier City,LA,Bossier,32.5224,-93.6668,62832
Council Bluffs,IA,Pottawattamie,41.2369,-95.8516,62564
Huntersville,NC,Mecklenburg,35.4060,-80.8716,62458
Taylor,MI,Wayne,42.2260,-83.2688,62405
Hendersonville,TN,Sumner,36.3063,-86.5997,62390
Sanford,FL,Seminole,28.7891,-81.2757,62292
La Habra,CA,Orange,33.9282,-117.9515,62233
Horizon West,FL,Orange,28.4417,-81.6146,62152
Dearborn Heights,MI,Wayne,42.3164,-83.2769,62099
St. Cloud,FL,Osceola,28.2363,-81.2779,61963
Pontiac,MI,Oakland,42.6493,-83.2878,61914
Richland,WA,Benton,46.2824,-119.2939,61912
Marietta,GA,Cobb,33.9533,-84.5422,61773
Florence-Graham,CA,Los Angeles,33.9682,-118.2447,61723
Springfield,OR,Lane,44.0538,-122.9811,61642
Encinitas,CA,San Diego,33.0492,-117.2610,61585
Wellington,FL,Palm Beach,26.6461,-80.2699,61497
Palm Harbor,FL,Pinellas,28.0847,-82.7481,61454
Montebello,CA,Los Angeles,34.0155,-118.1108,61376
Woodland,CA,Yolo,38.6712,-121.7500,61256
Bristol,CT,Naugatuck Valley,41.6812,-72.9407,61129
Jupiter,FL,Palm Beach,26.9200,-80.1128,61097
La Mesa,CA,San Diego,32.7703,-117.0204,60835
Pico Rivera,CA,Los Angeles,33.9901,-118.0888,60821
San Rafael,CA,Marin,37.9905,-122.5221,60604
Meriden,CT,South Central Connecticut,41.5369,-72.7946,60418
Euless,TX,Tarrant,32.8508,-97.0800,60373
Parker,CO,Douglas,39.5084,-104.7753,60115
Revere,MA,Suffolk,42.4189,-71.0040,59933
Stonecrest,GA,DeKalb,33.6842,-84.1372,59917
Chapel Hill,NC,Orange,35.9271,-79.0391,59889
White Plains,NY,Westchester,41.0220,-73.7547,59818
Gardena,CA,Los Angeles,33.8943,-118.3072,59765
Palm Beach Gardens,FL,Palm Beach,26.8466,-80.1679,59751
Taunton,MA,Bristol,41.9036,-71.0943,59719
Monterey Park,CA,Los Angeles,34.0497,-118.1326,59639
West Allis,WI,Milwaukee,43.0068,-88.0296,59588
Santee,CA,San Diego,32.8554,-116.9851,59485
North Miami,FL,Miami-Dade,25.9008,-80.1686,59429
Blue Springs,MO,Jackson,39.0124,-94.2721,59416
Des Plaines,IL,Cook,42.0345,-87.9008,59408
Kokomo,IN,Howard,40.4640,-86.1277,59375
Petaluma,CA,Sonoma,38.2423,-122.6266,59321
Shoreline,WA,King,47.7564,-122.3426,59280
Medford,MA,Middlesex,42.4234,-71.1087,59062
Taylorsville,UT,Salt Lake,40.6569,-111.9493,59010
Wylie,TX,Collin,33.0362,-96.5161,58991
Cupertino,CA,Santa Clara,37.3168,-122.0466,58886
The Hammocks,FL,Miami-Dade,25.6700,-80.4482,58548
Margate,FL,Broward,26.2466,-80.2119,58418
Carson City,NV,Carson City,39.1511,-119.7476,58364
Hoboken,NJ,Hudson,40.7452,-74.0281,58340
Madison,AL,Madison,34.7114,-86.7626,58335
St. Clair Shores,MI,Macomb,42.4925,-82.8961,58287
St. Peters,MO,St. Charles,38.7825,-90.6061,58200
Midwest City,OK,Oklahoma,35.4630,-97.3710,58170
Severn,MD,Anne Arundel,39.1355,-76.6956,58041
Lake Havasu City,AZ,Mohave,34.5006,-114.3113,58037
Lenexa,KS,Johnson,38.9609,-94.8018,57986
Orland Park,IL,Cook,41.6075,-87.8619,57961
Royal Oak,MI,Oakland,42.5084,-83.1539,57880
Bowie,MD,Prince George's,38.9549,-76.7406,57771
Decatur,AL,Morgan,34.5731,-86.9905,57760
Bel Air South,MD,Harford,39.5022,-76.3113,57702
Towson,MD,Baltimore,39.3944,-76.6190,57683
Casa Grande,AZ,Pinal,32.9069,-111.7624,57590
Coconut Creek,FL,Broward,26.2803,-80.1842,57587
Kettering,OH,Montgomery,39.6956,-84.1494,57442
Herriman,UT,Salt Lake,40.4899,-112.0170,57336
Brookhaven,GA,DeKalb,33.8743,-84.3314,57224
Oak Lawn,IL,Cook,41.7139,-87.7528,57098
Lacey,WA,Thurston,47.0462,-122.7933,57088
Bartlett,TN,Shelby,35.2337,-89.8195,56998
Highland,CA,San Bernardino,34.1113,-117.1650,56690
Kannapolis,NC,Cabarrus,35.4764,-80.6408,56470
Fountainebleau,FL,Miami-Dade,25.7723,-80.3460,56453
Fountain Valley,CA,Orange,33.7105,-117.9514,56358
Bentonville,AR,Benton,36.3547,-94.2305,56326
Bradenton,FL,Manatee,27.4901,-82.5757,56289
Smyrna,GA,Cobb,33.8633,-84.5168,56285
Sarasota,FL,Sarasota,27.3387,-82.5432,56218
Apopka,FL,Orange,28.7015,-81.5316,56202
National City,CA,San Diego,32.6654,-117.0983,55960
DeSoto,TX,Dallas,32.5992,-96.8633,55896
Berwyn,IL,Cook,41.8433,-87.7909,55888
New Brunswick,NJ,Middlesex,40.4870,-74.4450,55744
Apple Valley,MN,Dakota,44.7457,-93.2004,55696
Mount Prospect,IL,Cook,42.0641,-87.9375,55648
Arcadia,CA,Los Angeles,34.1342,-118.0373,55550
Southaven,MS,DeSoto,34.9514,-89.9786,55531
Tigard,OR,Washington,45.4237,-122.7845,55395
Perth Amboy,NJ,Middlesex,40.5202,-74.2724,55278
Chicopee,MA,Hampden,42.1764,-72.5719,55213
South Whittier,CA,Los Angeles,33.9336,-118.0312,55201
West Haven,CT,South Central Connecticut,41.2739,-72.9672,55147
Smyrna,TN,Rutherford,35.9687,-86.5264,55066
Tinley Park,IL,Cook,41.5670,-87.8049,55007
Hacienda Heights,CA,Los Angeles,33.9970,-117.9727,54956
Beaumont,CA,Riverside,33.9076,-116.9766,54817
San Jacinto,CA,Riverside,33.7970,-116.9916,54756
Plainfield,NJ,Union,40.6154,-74.4157,54515
West Sacramento,CA,Yolo,38.5557,-121.5505,54496
Marana,AZ,Pima,32.4355,-111.1558,54487
Yucaipa,CA,San Bernardino,34.0336,-117.0429,54348
Peabody,MA,Essex,42.5335,-70.9725,54180
Rocky Mount,NC,Nash,35.9685,-77.8040,54175
Texas City,TX,Galveston,29.4154,-94.9682,54159
Kentwood,MI,Kent,42.8852,-85.5926,54114
Manhattan,KS,Riley,39.1886,-96.6048,53951
Colton,CA,San Bernardino,34.0538,-117.3255,53798
Aspen Hill,MD,Montgomery,39.0927,-77.0826,53752
Diamond Bar,CA,Los Angeles,33.9992,-117.8161,53750
Huntington Park,CA,Los Angeles,33.9800,-118.2167,53658
Wheaton,IL,DuPage,41.8561,-88.1085,53453
Pinellas Park,FL,Pinellas,27.8589,-82.7078,53423
Aloha,OR,Washington,45.4920,-122.8725,53362
Oak Park,IL,Cook,41.8872,-87.7899,53315
Minnetonka,MN,Hennepin,44.9322,-93.4598,53256
Twin Falls,ID,Twin Falls,42.5645,-114.4613,53219
Edina,MN,Hennepin,44.8914,-93.3602,53125
Westchester,FL,Miami-Dade,25.7471,-80.3523,53082
Methuen Town,MA,Essex,42.7340,-71.1889,53043
Normal,IL,McLean,40.5217,-88.9884,52908
Elyria,OH,Lorain,41.3760,-82.1060,52833
Grand Island,NE,Hall,40.9218,-98.3586,52761
Novato,CA,Marin,38.0920,-122.5575,52689
Paramount,CA,Los Angeles,33.8977,-118.1651,52546
Kyle,TX,Hays,29.9932,-97.8852,52439
Placentia,CA,Orange,33.8807,-117.8553,52384
Wheaton,MD,Montgomery,39.0492,-77.0573,52172
Kendale Lakes,FL,Miami-Dade,25.7081,-80.4078,52141
Cathedral City,CA,Riverside,33.8362,-116.4642,52047
Florissant,MO,St. Louis,38.7996,-90.3269,51915
Catalina Foothills,AZ,Pima,32.3046,-110.8838,51756
West New York,NJ,Hudson,40.7857,-74.0094,51683
Lincoln,CA,Placer,38.8774,-121.2937,51629
Dunwoody,GA,DeKalb,33.9418,-84.3122,51563
Levittown,NY,Nassau,40.7241,-73.5125,51557
Palm Desert,CA,Riverside,33.7378,-116.3695,51551
Mooresville,NC,Iredell,35.5847,-80.8266,51447
Little Elm,TX,Denton,33.1858,-96.9295,51426
Glendora,CA,Los Angeles,34.1449,-117.8467,51350
Burien,WA,King,47.4762,-122.3394,51331
Aliso Viejo,CA,Orange,33.5792,-117.7289,51320
Summerville,SC,Dorchester,33.0016,-80.1799,51262
Collierville,TN,Shelby,35.0470,-89.6987,51212
Tamiami,FL,Miami-Dade,25.7556,-80.4016,51201
Wake Forest,NC,Wake,35.9632,-78.5140,51199
Hoffman Estates,IL,Cook,42.0640,-88.1468,51186
Westfield,IN,Hamilton,40.0341,-86.1529,51109
Columbus,IN,Bartholomew,39.2093,-85.9183,51104
Troy,NY,Rensselaer,42.7354,-73.6751,51054
Country Club,FL,Miami-Dade,25.9407,-80.3102,51000
Burleson,TX,Johnson,32.5170,-97.3344,50981
East Honolulu,HI,Honolulu,21.2975,-157.7211,50961
Levittown,PA,Bucks,40.1533,-74.8531,50930
Mishawaka,IN,St. Joseph,41.6742,-86.1666,50907
Grapevine,TX,Tarrant,32.9343,-97.0742,50875
Cuyahoga Falls,OH,Summit,41.1641,-81.5207,50864
Delano,CA,Kern,35.7662,-119.2635,50835
Enid,OK,Garfield,36.4063,-97.8700,50821
Milford city ,CT,South Central Connecticut,41.2255,-73.0625,50749
El Dorado Hills,CA,El Dorado,38.6750,-121.0490,50553
Rosemead,CA,Los Angeles,34.0689,-118.0823,50340
McLean,VA,Fairfax,38.9436,-77.1943,50232
Lakewood,OH,Cuyahoga,41.4822,-81.8008,50229
Jeffersonville,IN,Clark,38.3376,-85.7026,50176
Draper,UT,Salt Lake,40.4957,-111.8605,50159
Covina,CA,Los Angeles,34.0903,-117.8818,50143
Murray,UT,Salt Lake,40.6498,-111.8874,49904
Downers Grove,IL,DuPage,41.7949,-88.0172,49867
Rockwall,TX,Rockwall,32.9169,-96.4374,49605
Chesterfield,MO,St. Louis,38.6589,-90.5803,49591
St. Louis Park,MN,Hennepin,44.9488,-93.3649,49541
Florin,CA,Sacramento,38.4832,-121.4043,49536
Cypress,CA,Orange,33.8171,-118.0386,49531
Eagle Mountain,UT,Utah,40.3137,-112.0114,49514
North Bethesda,MD,Montgomery,39.0393,-77.1191,49498
Azusa,CA,Los Angeles,34.1386,-117.9124,49318
Lawrence,IN,Marion,39.8674,-85.9904,49284
Coral Gables,FL,Miami-Dade,25.7037,-80.2715,49243
Everett,MA,Middlesex,42.4064,-71.0545,49236
Bedford,TX,Tarrant,32.8464,-97.1350,49191
Antelope,CA,Sacramento,38.7153,-121.3610,49080
Dublin,OH,Franklin,40.1112,-83.1454,49031
Portage,MI,Kalamazoo,42.2000,-85.5906,49015
Biloxi,MS,Harrison,30.4426,-88.9514,49011
Titusville,FL,Brevard,28.5727,-80.8193,49004
Euclid,OH,Cuyahoga,41.5903,-81.5188,48991
Ceres,CA,Stanislaus,37.5952,-120.9620,48918
University,FL,Hillsborough,28.0771,-82.4335,48868
Stillwater,OK,Payne,36.1317,-97.0742,48818
Leesburg,VA,Loudoun,39.1057,-77.5544,48788
Bothell,WA,King,47.7735,-122.2044,48610
Tuckahoe,VA,Henrico,37.5878,-77.5858,48610
Cedar Hill,TX,Dallas,32.5810,-96.9591,48547
Poway,CA,San Diego,32.9871,-117.0201,48515
Cerritos,CA,Los Angeles,33.8678,-118.0686,48340
Hilo,HI,Hawaii,19.6883,-155.0863,48223
Niagara Falls,NY,Niagara,43.0921,-79.0147,48198
Fort Pierce,FL,St. Lucie,27.4255,-80.3431,48094
San Luis Obispo,CA,San Luis Obispo,35.2669,-120.6690,48039
Minot,ND,Ward,48.2375,-101.2780,47922
North Highlands,CA,Sacramento,38.6713,-121.3721,47900
Ocoee,FL,Orange,28.5796,-81.5332,47885
Roswell,NM,Chaves,33.3730,-104.5294,47823
Wilson,NC,Wilson,35.7311,-77.9284,47740
Wauwatosa,WI,Milwaukee,43.0616,-88.0347,47718
Glenview,IL,Cook,42.0825,-87.8214,47682
Middletown,CT,Lower Connecticut River Valley,41.5476,-72.6549,47646
Oro Valley,AZ,Pima,32.4208,-110.9767,47595
Brea,CA,Orange,33.9254,-117.8655,47337
Rancho Santa Margarita,CA,Orange,33.6318,-117.5988,47257
Roseville,MI,Macomb,42.5074,-82.9369,47240
Mentor,OH,Lake,41.6893,-81.3362,47215
Winter Garden,FL,Orange,28.5421,-81.5967,47182
Newark,CA,Alameda,37.5201,-122.0307,47145
East Providence,RI,Providence,41.8065,-71.3565,46970
Goose Creek,SC,Berkeley,32.9927,-80.0055,46964
La Mirada,CA,Los Angeles,33.9025,-118.0093,46945
Huntsville,TX,Walker,30.7009,-95.5567,46917
Rowland Heights,CA,Los Angeles,33.9716,-117.8912,46787
Beavercreek,OH,Greene,39.7310,-84.0624,46787
Los Banos,CA,Merced,37.0630,-120.8406,46776
Prescott,AZ,Yavapai,34.5849,-112.4473,46744
Gallatin,TN,Sumner,36.3782,-86.4698,46667
Olive Branch,MS,DeSoto,34.9610,-89.8469,46538
Attleboro,MA,Bristol,41.9311,-71.2950,46499
Salina,KS,Saline,38.8136,-97.6143,46432
Farmington,NM,San Juan,36.7555,-108.1823,46339
Whitney,NV,Clark,36.1008,-115.0379,46268
Potomac,MD,Montgomery,39.0141,-77.1943,46230
Urbandale,IA,Polk,41.6390,-93.7812,46026
Strongsville,OH,Cuyahoga,41.3128,-81.8313,46022
Pahrump,NV,Nye,36.2235,-115.9974,45811
Hackensack,NJ,Bergen,40.8891,-74.0462,45768
Wentzville,MO,St. Charles,38.8153,-90.8669,45734
Plainfield,IL,Will,41.6207,-88.2253,45705
Haltom City,TX,Tarrant,32.8176,-97.2707,45681
Altamonte Springs,FL,Seminole,28.6615,-81.3953,45657
Keller,TX,Tarrant,32.9335,-97.2256,45598
Odenton,MD,Anne Arundel,39.0661,-76.6938,45585
Ashburn,VA,Loudoun,39.0277,-77.4714,45551
Elmhurst,IL,DuPage,41.8973,-87.9432,45538
East Lansing,MI,Ingham,42.7480,-84.4836,45394
Brentwood,TN,Williamson,35.9918,-86.7758,45272
Sayreville,NJ,Middlesex,40.4656,-74.3237,45237
Sierra Vista,AZ,Cochise,31.5630,-110.3153,45203
Morgan Hill,CA,Santa Clara,37.1325,-121.6419,45152
Bountiful,UT,Davis,40.8721,-111.8647,45093
Littleton,CO,Arapahoe,39.5915,-105.0188,45092
Pearl City,HI,Honolulu,21.4031,-157.9566,45079
Lake Ridge,VA,Prince William,38.6847,-77.3066,45007
Shakopee,MN,Scott,44.7745,-93.4772,45002
Palm Springs,CA,Riverside,33.8017,-116.5382,44998
Clermont,FL,Lake,28.5325,-81.7208,44984
Riverton,UT,Salt Lake,40.5176,-111.9636,44944
The Colony,TX,Denton,33.0925,-96.8976,44916
Mankato,MN,Blue Earth,44.1715,-93.9772,44882
West Lafayette,IN,Tippecanoe,40.4432,-86.9238,44802
Moorhead,MN,Clay,46.8673,-96.7461,44706
Cleveland Heights,OH,Cuyahoga,41.5113,-81.5636,44694
North Lauderdale,FL,Broward,26.2113,-80.2209,44650
Fairfield,OH,Butler,39.3301,-84.5409,44597
Sicklerville,NJ,Camden,39.7452,-74.9934,44500
Fond du Lac,WI,Fond du Lac,43.7718,-88.4397,44491
Cutler Bay,FL,Miami-Dade,25.5765,-80.3356,44483
Rohnert Park,CA,Sonoma,38.3479,-122.6965,44461
Oakley,CA,Contra Costa,37.9929,-121.6952,44311
Salem,MA,Essex,42.5129,-70.9021,44241
Concord,NH,Merrimack,43.2305,-71.5595,44219
Wilkes-Barre,PA,Luzerne,41.2469,-75.8760,44217
North Fort Myers,FL,Lee,26.7244,-81.8485,44189
El Centro,CA,Imperial,32.7865,-115.5595,44186
Freeport,NY,Nassau,40.6515,-73.5850,44102
Saratoga Springs,UT,Utah,40.3450,-111.9154,44070
Oakland Park,FL,Broward,26.1780,-80.1528,44015
Columbia,TN,Maury,35.6238,-87.0484,43971
Greenacres,FL,Palm Beach,26.6270,-80.1371,43871
Hicksville,NY,Nassau,40.7637,-73.5245,43868
Lompoc,CA,Santa Barbara,34.6618,-120.4714,43819
Trujillo Alto,PR,Trujillo Alto,18.3599,-66.0096,43752
Lombard,IL,DuPage,41.8741,-88.0157,43722
Spanish Fork,UT,Utah,40.1101,-111.6405,43632
Linden,NJ,Union,40.6251,-74.2383,43614
Waxahachie,TX,Ellis,32.4035,-96.8446,43591
Pittsfield,MA,Berkshire,42.4517,-73.2605,43559
Channelview,TX,Harris,29.7914,-95.1144,43536
Ormond Beach,FL,Volusia,29.2985,-81.1014,43514
Newnan,GA,Coweta,33.3767,-84.7761,43510
Woodbridge,VA,Prince William,38.6409,-77.2580,43443
Holly Springs,NC,Wake,35.6526,-78.8399,43429
Danville,CA,Contra Costa,37.8121,-121.9698,43426
Burke,VA,Fairfax,38.7773,-77.2633,43336
Huber Heights,OH,Montgomery,39.8595,-84.1130,43266
West Babylon,NY,Suffolk,40.7129,-73.3585,43239
Delaware,OH,Delaware,40.2851,-83.0741,43168
Schertz,TX,Bexar,29.5650,-98.2535,43128
North Miami Beach,FL,Miami-Dade,25.9302,-80.1659,43104
Woonsocket,RI,Providence,42.0010,-71.4993,43074
Hollister,CA,San Benito,36.8555,-121.3986,43003
Campbell,CA,Santa Clara,37.2802,-121.9539,42848
Buffalo Grove,IL,Lake,42.1675,-87.9615,42824
Edmonds,WA,Snohomish,47.8115,-122.3533,42783
Catonsville,MD,Baltimore,39.2646,-76.7424,42717
Manassas,VA,Manassas,38.7479,-77.4838,42674
Vineyard,CA,Sacramento,38.4740,-121.3240,42645
Puyallup,WA,Pierce,47.1793,-122.2902,42642
San Bruno,CA,San Mateo,37.6256,-122.4313,42612
Coachella,CA,Riverside,33.6905,-116.1430,42594
Jefferson City,MO,Cole,38.5676,-92.1759,42565
French Valley,CA,Riverside,33.5999,-117.1069,42550
Midland,MI,Midland,43.6241,-84.2319,42461
Beverly,MA,Essex,42.5681,-70.8627,42408
Mableton,GA,Cobb,33.8133,-84.5655,42403
Danville,VA,Danville,36.5831,-79.4088,42239
Moline,IL,Rock Island,41.4821,-90.4920,42235
Bullhead City,AZ,Mohave,35.1205,-114.5461,42193
Peachtree Corners,GA,Gwinnett,33.9670,-84.2320,42184
Linton Hall,VA,Prince William,38.7551,-77.5750,42077
Coppell,TX,Dallas,32.9639,-96.9903,42029
Annandale,VA,Fairfax,38.8324,-77.1960,41982
Lebanon,TN,Wilson,36.2040,-86.3481,41951
Altadena,CA,Los Angeles,34.1927,-118.1346,41921
Land O' Lakes,FL,Pasco,28.2075,-82.4476,41845
Grove City,OH,Franklin,39.8654,-83.0690,41831
Belleville,IL,St. Clair,38.5164,-89.9900,41722
Post Falls,ID,Kootenai,47.7213,-116.9384,41716
Marion,IA,Linn,42.0451,-91.5850,41690
Fitchburg,MA,Worcester,42.5912,-71.8156,41633
Brookfield,WI,Waukesha,43.0640,-88.1231,41592
Coram,NY,Suffolk,40.8812,-73.0059,41527
Princeton,FL,Miami-Dade,25.5396,-80.3971,41476
Weslaco,TX,Hidalgo,26.1599,-97.9877,41437
Shelton,CT,Naugatuck Valley,41.3060,-73.1383,41402
Marlborough,MA,Middlesex,42.3494,-71.5468,41398
Milton,GA,Fulton,34.1353,-84.3139,41305
Rancho Palos Verdes,CA,Los Angeles,33.7554,-118.3634,41259
Hallandale Beach,FL,Broward,25.9854,-80.1423,41224
Woburn,MA,Middlesex,42.4869,-71.1543,41205
Brighton,CO,Adams,39.9716,-104.7963,41196
Indian Trail,NC,Union,35.0699,-80.6452,41146
Reynoldsburg,OH,Franklin,39.9588,-82.7943,41032
Romeoville,IL,Will,41.6318,-88.0997,40996
Maplewood,MN,Ramsey,44.9842,-93.0247,40981
Lynnwood,WA,Snohomish,47.8284,-122.3033,40953
Lancaster,OH,Fairfield,39.7248,-82.6049,40902
Covington,KY,Kenton,39.0334,-84.5166,40902
Mount Juliet,TN,Wilson,36.1990,-86.5115,40828
Friendswood,TX,Galveston,29.5110,-95.1981,40827
Germantown,TN,Shelby,35.0829,-89.7824,40812
Lancaster,TX,Dallas,32.5922,-96.7739,40753
Annapolis,MD,Anne Arundel,38.9706,-76.5047,40744
Meadow Woods,FL,Orange,28.3698,-81.3467,40741
Westfield,MA,Hampden,42.1382,-72.7561,40673
Essex,MD,Baltimore,39.3021,-76.4449,40670
Cedar Falls,IA,Black Hawk,42.5195,-92.4536,40662
Kearny,NJ,Hudson,40.7528,-74.1202,40570
Bartlett,IL,DuPage,41.9804,-88.2071,40531
Woodlawn,MD,Baltimore,39.3054,-76.7489,40476
DeKalb,IL,DeKalb,41.9314,-88.7481,40464
Pine Bluff,AR,Jefferson,34.2116,-92.0173,40436
Crystal Lake,IL,McHenry,42.2333,-88.3351,40436
New Berlin,WI,Waukesha,42.9726,-88.1291,40384
Lake Oswego,OR,Clackamas,45.4129,-122.7004,40367
Findlay,OH,Hancock,41.0469,-83.6379,40280
Valley Stream,NY,Nassau,40.6647,-73.7043,40278
The Acreage,FL,Palm Beach,26.7740,-80.2779,40188
Cottage Grove,MN,Washington,44.8161,-92.9274,40124
Cape Girardeau,MO,Cape Girardeau,37.3109,-89.5597,40047
Plant City,FL,Hillsborough,28.0140,-82.1201,40009
Culver City,CA,Los Angeles,34.0058,-118.3968,39993
Oviedo,FL,Seminole,28.6580,-81.1872,39990
Hurst,TX,Tarrant,32.8353,-97.1809,39912
Hobbs,NM,Lea,32.7281,-103.1600,39887
Duncanville,TX,Dallas,32.6460,-96.9127,39879
Waipahu,HI,Honolulu,21.3859,-158.0101,39871
Hutchinson,KS,Reno,38.0671,-97.9081,39837
DeLand,FL,Volusia,29.0225,-81.2875,39832
Fort Lee,NJ,Bergen,40.8509,-73.9713,39818
Apache Junction,AZ,Pinal,33.3985,-111.5350,39746
Rexburg,ID,Madison,43.8226,-111.7919,39589
Lincoln Park,MI,Wayne,42.2432,-83.1811,39511
Lake Stevens,WA,Snohomish,48.0024,-122.0953,39500
Severna Park,MD,Anne Arundel,39.0870,-76.5687,39499
Issaquah,WA,King,47.5439,-122.0471,39472
Rosenberg,TX,Fort Bend,29.5456,-95.8223,39467
Chelsea,MA,Suffolk,42.3959,-71.0325,39460
Lakewood Ranch,FL,Manatee,27.4185,-82.3948,39434
Carol Stream,IL,DuPage,41.9181,-88.1307,39427
Aventura,FL,Miami-Dade,25.9566,-80.1371,39372
West Fargo,ND,Cass,46.8573,-96.9057,39325
Bettendorf,IA,Scott,41.5657,-90.4765,39297
Park Ridge,IL,Cook,42.0125,-87.8436,39241
Greer,SC,Greenville,34.9330,-82.2313,39191
Quincy,IL,Adams,39.9336,-91.3799,39188
Grants Pass,OR,Josephine,42.4333,-123.3317,39183
Parkland,WA,Pierce,47.1417,-122.4376,39174
Royal Palm Beach,FL,Palm Beach,26.7038,-80.2241,39089
Warren,OH,Trumbull,41.2390,-80.8174,39057
Streamwood,IL,Cook,42.0209,-88.1779,39055
Roy,UT,Weber,41.1714,-112.0485,39021
Keizer,OR,Marion,45.0028,-123.0243,39013
Owasso,OK,Tulsa,36.2878,-95.8311,39013
Navarre,FL,Santa Rosa,30.4174,-86.8907,38988
Peachtree City,GA,Fayette,33.3942,-84.5710,38977
Menomonee Falls,WI,Waukesha,43.1487,-88.1227,38963
La Vergne,TN,Rutherford,36.0200,-86.5586,38944
Prattville,AL,Autauga,32.4597,-86.4573,38850
Valrico,FL,Hillsborough,27.9193,-82.2293,38820
San Gabriel,CA,Los Angeles,34.0949,-118.0990,38764
Clinton,MD,Prince George's,38.7499,-76.9063,38756
Vestavia Hills,AL,Jefferson,33.4518,-86.7437,38704
Bell Gardens,CA,Los Angeles,33.9663,-118.1550,38661
Security-Widefield,CO,El Paso,38.7489,-104.7142,38659
Stanton,CA,Orange,33.8003,-117.9935,38639
Westerville,OH,Franklin,40.1241,-82.9210,38543
Wheeling,IL,Cook,42.1308,-87.9240,38495
Atlantic City,NJ,Atlantic,39.3797,-74.4527,38486
Phenix City,AL,Russell,32.4585,-85.0253,38477
Calexico,CA,Imperial,32.6849,-115.4944,38476
Winter Springs,FL,Seminole,28.6889,-81.2703,38448
Urbana,IL,Champaign,40.1107,-88.1973,38447
Mechanicsville,VA,Hanover,37.6263,-77.3561,38437
La Quinta,CA,Riverside,33.6536,-116.2785,38299
East Point,GA,Fulton,33.6696,-84.4701,38233
Georgetown,KY,Scott,38.2247,-84.5487,38206
Clovis,NM,Curry,34.4376,-103.1923,38153
Riviera Beach,FL,Palm Beach,26.7813,-80.0741,38032
Hot Springs,AR,Garland,34.4892,-93.0501,38023
Sun City,AZ,Maricopa,33.6165,-112.2819,38018
Adelanto,CA,San Bernardino,34.5814,-117.4397,38010
Northglenn,CO,Adams,39.9108,-104.9783,37953
Portage,IN,Porter,41.5856,-87.1797,37951
Holyoke,MA,Hampden,42.2125,-72.6411,37949
Lewiston,ME,Androscoggin,44.0915,-70.1681,37886
Tupelo,MS,Lee,34.2692,-88.7318,37825
Montclair,CA,San Bernardino,34.0715,-117.6981,37809
Hilton Head Island,SC,Beaufort,32.1896,-80.7499,37805
Winchester,NV,Clark,36.1365,-115.1370,37774
Rome,GA,Floyd,34.2662,-85.1863,37754
Central Islip,NY,Suffolk,40.7836,-73.1945,37751
Fuquay-Varina,NC,Wake,35.5953,-78.7778,37749
Evans,GA,Columbia,33.5619,-82.1351,37718
New Albany,IN,Floyd,38.3090,-85.8234,37589
Bartlesville,OK,Washington,36.7365,-95.9456,37559
Monrovia,CA,Los Angeles,34.1650,-117.9921,37553
Pleasant Grove,UT,Utah,40.3716,-111.7412,37544
Carpentersville,IL,Kane,42.1227,-88.2896,37544
Pacifica,CA,San Mateo,37.6113,-122.4782,37527
South Miami Heights,FL,Miami-Dade,25.5886,-80.3862,37525
Oregon City,OR,Clackamas,45.3418,-122.5924,37482
La Puente,CA,Los Angeles,34.0323,-117.9533,37404
Greenfield,WI,Milwaukee,42.9619,-88.0052,37361
Foothill Farms,CA,Sacramento,38.6867,-121.3475,37332
Mission Bend,TX,Fort Bend,29.6948,-95.6658,37280
Tooele,UT,Tooele,40.5393,-112.3082,37265
Estero,FL,Lee,26.4276,-81.7951,37258
Midlothian,TX,Ellis,32.4669,-96.9890,37256
Cedar City,UT,Iron,37.6834,-113.0956,37202
Leavenworth,KS,Leavenworth,39.3239,-94.9240,37176
Copperas Cove,TX,Coryell,31.1192,-97.9140,37149
Kearns,UT,Salt Lake,40.6519,-112.0095,37058
Tucker,GA,DeKalb,33.8436,-84.2024,37022
Wildomar,CA,Riverside,33.6173,-117.2582,36953
Martinez,CA,Contra Costa,37.9985,-122.1161,36926
Hanover Park,IL,DuPage,41.9818,-88.1446,36850
Muskogee,OK,Muskogee,35.7432,-95.3567,36819
Oakton,VA,Fairfax,38.8887,-77.3016,36776
Rock Island,IL,Rock Island,41.4699,-90.5827,36758
Richfield,MN,Hennepin,44.8763,-93.2829,36725
La Presa,CA,San Diego,32.7110,-117.0027,36669
South Valley,NM,Bernalillo,35.0093,-106.6819,36605
Kiryas Joel,NY,Orange,41.3411,-74.1667,36572
Hilliard,OH,Franklin,40.0353,-83.1578,36560
Beloit,WI,Rock,42.5230,-89.0184,36554
Claremont,CA,Los Angeles,34.1259,-117.7153,36553
Oak Creek,WI,Milwaukee,42.8803,-87.9009,36473
Sun Prairie,WI,Dane,43.1825,-89.2362,36455
Elmont,NY,Nassau,40.7033,-73.7078,36436
Commack,NY,Suffolk,40.8435,-73.2833,36353
Merrillville,IN,Lake,41.4728,-87.3196,36343
Upper Arlington,OH,Franklin,40.0272,-83.0704,36319
Woodstock,GA,Cherokee,34.1026,-84.5091,36297
Douglasville,GA,Douglas,33.7384,-84.7054,36284
Farmers Branch,TX,Dallas,32.9272,-96.8804,36254
Socorro,TX,El Paso,31.6383,-106.2601,36237
La Porte,TX,Harris,29.6689,-95.0484,36077
Dunedin,FL,Pinellas,28.0329,-82.7862,36060
North Ridgeville,OH,Lorain,41.3852,-82.0195,36043
Olney,MD,Montgomery,39.1465,-77.0715,36000
San Luis,AZ,Yuma,32.4911,-114.7089,35998
Richmond West,FL,Miami-Dade,25.6105,-80.4297,35988
Randallstown,MD,Baltimore,39.3723,-76.8024,35975
Moorpark,CA,Ventura,34.2861,-118.8768,35957
Benton,AR,Saline,34.5776,-92.5713,35954
Kaneohe,HI,Honolulu,21.4062,-157.7904,35945
Lauderdale Lakes,FL,Broward,26.1682,-80.2017,35924
Windsor,CO,Weld,40.4690,-104.9198,35918
Roseville,MN,Ramsey,45.0155,-93.1545,35905
El Mirage,AZ,Maricopa,33.5905,-112.3271,35823
East Meadow,NY,Nassau,40.7197,-73.5604,35806
Parkland,FL,Broward,26.3219,-80.2533,35799
Plainfield,IN,Hendricks,39.6954,-86.3716,35783
Norristown,PA,Montgomery,40.1225,-75.3398,35782
Inver Grove Heights,MN,Dakota,44.8247,-93.0596,35772
Marion,OH,Marion,40.5973,-83.1227,35771
Franklin,WI,Milwaukee,42.8854,-88.0104,35751
Temple City,CA,Los Angeles,34.1022,-118.0579,35749
Midvale,UT,Salt Lake,40.6148,-111.8927,35736
Salisbury,NC,Rowan,35.6658,-80.4905,35730
Egypt Lake-Leto,FL,Hillsborough,28.0177,-82.5062,35709
San Juan,TX,Hidalgo,26.1903,-98.1520,35674
Carrollwood,FL,Hillsborough,28.0577,-82.5148,35645
Owings Mills,MD,Baltimore,39.4115,-76.7913,35626
Fruit Cove,FL,St. Johns,30.0972,-81.6175,35609
Monroe,NC,Union,35.0063,-80.5596,35596
Richmond,IN,Wayne,39.8318,-84.8905,35551
Cookeville,TN,Putnam,36.1482,-85.5109,35544
Richmond,KY,Madison,37.7307,-84.2925,35498
Kendall West,FL,Miami-Dade,25.7065,-80.4388,35492
Torrington,CT,Northwest Hills,41.8349,-73.1282,35481
Stockbridge,GA,Henry,33.5254,-84.2295,35475
Springville,UT,Utah,40.1638,-111.6205,35474
Fair Oaks,VA,Fairfax,38.8653,-77.3586,35472
Addison,IL,DuPage,41.9313,-88.0085,35470
Oswego,IL,Kendall,41.6834,-88.3372,35463
Gahanna,OH,Franklin,40.0251,-82.8637,35438
American Fork,UT,Utah,40.3783,-111.7953,35312
Brunswick,OH,Medina,41.2465,-81.8198,35284
Hinesville,GA,Liberty,31.8248,-81.6137,35282
Watertown Town,MA,Middlesex,42.3700,-71.1774,35270
Calumet City,IL,Cook,41.6134,-87.5505,35253
Orangevale,CA,Sacramento,38.6881,-121.2209,35219
Wildwood,MO,St. Louis,38.5800,-90.6698,35168
Oakville,MO,St. Louis,38.4479,-90.3199,35166
Chillum,MD,Prince George's,38.9666,-76.9791,35163
Redmond,OR,Deschutes,44.2612,-121.1810,35161
Fair Lawn,NJ,Bergen,40.9359,-74.1177,35153
Mason,OH,Warren,39.3571,-84.3023,35148
West Hollywood,CA,Los Angeles,34.0883,-118.3719,35090
Graham,WA,Pierce,47.0322,-122.2827,35090
Golden Glades,FL,Miami-Dade,25.9129,-80.2013,35042
Sahuarita,AZ,Pima,31.9323,-110.9654,35012
Prairieville,LA,Ascension,30.3151,-90.9571,35010
San Juan Capistrano,CA,Orange,33.5008,-117.6544,34998
Pueblo West,CO,Pueblo,38.3465,-104.7246,34992
Timberwood Park,TX,Bexar,29.6995,-98.4838,34980
Oildale,CA,Kern,35.4293,-119.0306,34971
Butte,MT,Silver Bow,45.9020,-112.6571,34929
University Place,WA,Pierce,47.2147,-122.5461,34850
Long Beach,NY,Nassau,40.5887,-73.6660,34741
Merritt Island,FL,Brevard,28.3139,-80.6708,34718
University City,MO,St. Louis,38.6657,-90.3315,34655
Northbrook,IL,Cook,42.1292,-87.8352,34642
Del Rio,TX,Val Verde,29.3708,-100.8801,34638
Canton,GA,Cherokee,34.2467,-84.4897,34587
Manhattan Beach,CA,Los Angeles,33.8894,-118.3967,34584
Prosper,TX,Collin,33.2394,-96.8087,34567
Manitowoc,WI,Manitowoc,44.0991,-87.6812,34553
Fairborn,OH,Greene,39.8010,-84.0094,34506
McMinnville,OR,Yamhill,45.2110,-123.1918,34493
Lewiston,ID,Nez Perce,46.3934,-116.9933,34471
Meridian,MS,Lauderdale,32.3846,-88.6896,34466
College Park,MD,Prince George's,38.9960,-76.9337,34397
Valparaiso,IN,Porter,41.4783,-87.0506,34377
Goshen,IN,Elkhart,41.5743,-85.8309,34374
Pleasant Hill,CA,Contra Costa,37.9539,-122.0759,34335
Spanaway,WA,Pierce,47.0979,-122.4233,34322
Stow,OH,Summit,41.1765,-81.4344,34317
Westmont,CA,Los Angeles,33.9417,-118.3018,34291
Pikesville,MD,Baltimore,39.3893,-76.7020,34253
South Riding,VA,Loudoun,38.9120,-77.5132,34200
Cooper City,FL,Broward,26.0463,-80.2862,34166
Montgomery Village,MD,Montgomery,39.1788,-77.1954,34161
Dakota Ridge,CO,Jefferson,39.6192,-105.1344,34159
Lufkin,TX,Angelina,31.3217,-94.7277,34158
New City,NY,Rockland,41.1542,-73.9912,34133
San Dimas,CA,Los Angeles,34.1082,-117.8090,34099
Crown Point,IN,Lake,41.4143,-87.3457,34042
Westlake,OH,Cuyahoga,41.4524,-81.9294,34036
Kearney,NE,Buffalo,40.7011,-99.0833,34024
Syracuse,UT,Davis,41.0859,-112.0698,34009
Eastpointe,MI,Macomb,42.4657,-82.9461,34003
Weatherford,TX,Parker,32.7536,-97.7723,33924
Woodridge,IL,DuPage,41.7370,-88.0409,33889
Kingman,AZ,Mohave,35.2170,-114.0105,33850
Leawood,KS,Johnson,38.9075,-94.6258,33844
Cibolo,TX,Guadalupe,29.5634,-98.2115,33829
Deer Park,TX,Harris,29.6898,-95.1151,33823
Englewood,CO,Arapahoe,39.6468,-104.9942,33774
Walla Walla,WA,Walla Walla,46.0671,-118.3368,33766
Statesboro,GA,Bulloch,32.4375,-81.7751,33705
Uniondale,NY,Nassau,40.7176,-73.5947,33637
Alabaster,AL,Shelby,33.2198,-86.8225,33633
Kennesaw,GA,Cobb,34.0260,-84.6177,33627
Gadsden,AL,Etowah,34.0086,-86.0157,33617
Baldwin,NY,Nassau,40.6511,-73.6075,33595
Harker Heights,TX,Bell,31.0572,-97.6446,33595
Goldsboro,NC,Wayne,35.3778,-77.9717,33448
Ken Caryl,CO,Jefferson,39.5770,-105.1144,33407
Petersburg,VA,Petersburg,37.2043,-77.3913,33365
Huntington Station,NY,Suffolk,40.8446,-73.4050,33283
Gillette,WY,Campbell,44.2752,-105.4982,33278
Chester,PA,Delaware,39.8456,-75.3718,33209
West Little River,FL,Miami-Dade,25.8571,-80.2367,33147
Helena,MT,Lewis and Clark,46.5965,-112.0202,33126
Bethel Park,PA,Allegheny,40.3238,-80.0364,33070
Martinez,GA,Columbia,33.5209,-82.0985,33019
East Lake,FL,Pinellas,28.1206,-82.6868,33019
Spring Valley,NY,Rockland,41.1151,-74.0486,32995
Cottonwood Heights,UT,Salt Lake,40.6137,-111.8144,32984
Cleburne,TX,Johnson,32.3568,-97.4151,32966
Foster City,CA,San Mateo,37.5553,-122.2659,32964
Canyon Lake,TX,Comal,29.8761,-98.2611,32924
Sherwood,AR,Pulaski,34.8507,-92.2029,32915
Clearfield,UT,Davis,41.1030,-112.0238,32895
Dana Point,CA,Orange,33.4733,-117.6967,32883
Rochester,NH,Strafford,43.2990,-70.9787,32866
Glendale Heights,IL,DuPage,41.9196,-88.0785,32864
Kaysville,UT,Davis,41.0290,-111.9456,32861
Bell,CA,Los Angeles,33.9801,-118.1798,32830
Andover,MN,Anoka,45.2571,-93.3265,32825
Brooklyn Center,MN,Hennepin,45.0681,-93.3162,32811
Desert Hot Springs,CA,Riverside,33.9550,-116.5429,32786
Menlo Park,CA,San Mateo,37.4685,-122.1673,32775
Los Gatos,CA,Santa Clara,37.2304,-121.9562,32773
St. Charles,IL,Kane,41.9193,-88.3109,32733
Pasadena,MD,Anne Arundel,39.1552,-76.5537,32717
Savage,MN,Scott,44.7545,-93.3632,32706
Lathrop,CA,San Joaquin,37.8090,-121.3131,32696
Goleta,CA,Santa Barbara,34.4361,-119.8594,32693
Des Moines,WA,King,47.3914,-122.3156,32545
Garner,NC,Wake,35.6936,-78.6181,32543
Garfield,NJ,Bergen,40.8791,-74.1085,32502
Fallbrook,CA,San Diego,33.3693,-117.2259,32467
Florence,KY,Boone,38.9899,-84.6471,32334
Aiken,SC,Aiken,33.5303,-81.7271,32334
Buenaventura Lakes,FL,Osceola,28.3349,-81.3539,32310
Spring Valley,CA,San Diego,32.7317,-116.9766,32215
Maryville,TN,Blount,35.7468,-83.9789,32196
Hutto,TX,Williamson,30.5396,-97.5440,32188
Long Branch,NJ,Monmouth,40.2965,-73.9915,32184
Massillon,OH,Stark,40.7838,-81.5254,32177
Wheat Ridge,CO,Jefferson,39.7728,-105.1028,32158
O'Fallon,IL,St. Clair,38.5974,-89.9148,32139
Elk Grove Village,IL,Cook,42.0064,-87.9921,32132
Nacogdoches,TX,Nacogdoches,31.6134,-94.6528,32104
Oak Ridge,TN,Anderson,35.9639,-84.2938,32088
North Olmsted,OH,Cuyahoga,41.4149,-81.9190,32031
Fair Oaks,CA,Sacramento,38.6504,-121.2496,32030
Atwater,CA,Merced,37.3529,-120.5959,32013
Cornelius,NC,Mecklenburg,35.4724,-80.8813,32009
West Odessa,TX,Ector,31.8389,-102.5003,31985
Juneau,AK,Juneau,58.4546,-134.1739,31969
Duluth,GA,Gwinnett,34.0053,-84.1492,31958
Beverly Hills,CA,Los Angeles,34.0786,-118.4021,31955
Opelika,AL,Lee,32.6612,-85.3769,31944
Milford Mill,MD,Baltimore,39.3444,-76.7668,31939
Pullman,WA,Whitman,46.7336,-117.1680,31939
Erie,CO,Weld,40.0404,-105.0399,31927
Oceanside,NY,Nassau,40.6328,-73.6364,31907
Marrero,LA,Jefferson,29.8871,-90.1126,31866
Laramie,WY,Albany,41.3099,-105.6085,31848
Carlsbad,NM,Eddy,32.4010,-104.2388,31813
Pekin,IL,Tazewell,40.5678,-89.6251,31812
Sun City Center,FL,Hillsborough,27.7150,-82.3569,31801
Rome,NY,Oneida,43.2260,-75.4909,31795
Ithaca,NY,Tompkins,42.4442,-76.5032,31792
Seguin,TX,Guadalupe,29.5891,-97.9676,31789
San Pablo,CA,Contra Costa,37.9629,-122.3426,31771
Dania Beach,FL,Broward,26.0593,-80.1637,31739
Lake Magdalene,FL,Hillsborough,28.0875,-82.4791,31733
West Bend,WI,Washington,43.4173,-88.1818,31722
Bethany,OR,Washington,45.5614,-122.8370,31700
Bangor,ME,Penobscot,44.8323,-68.7906,31663
Naugatuck,CT,Naugatuck Valley,41.4890,-73.0518,31634
Mundelein,IL,Lake,42.2693,-88.0102,31632
Nicholasville,KY,Jessamine,37.8906,-84.5668,31625
Middle River,MD,Baltimore,39.3436,-76.4253,31616
Bel Air North,MD,Harford,39.5543,-76.3732,31599
Fitchburg,WI,Dane,42.9859,-89.4255,31566
New Bern,NC,Craven,35.0955,-77.0723,31563
Lakeside,FL,Clay,30.1356,-81.7674,31548
Shawnee,OK,Pottawatomie,35.3531,-96.9647,31511
Centereach,NY,Suffolk,40.8681,-73.0821,31501
Eagle,ID,Ada,43.7223,-116.3866,31490
LaGrange,GA,Troup,33.0274,-85.0384,31479
Zionsville,IN,Boone,39.9897,-86.3182,31442
Bluffton,SC,Beaufort,32.2135,-80.9316,31323
Orcutt,CA,Santa Barbara,34.8691,-120.4222,31284
Bay Shore,NY,Suffolk,40.7288,-73.2495,31275
Sterling,VA,Loudoun,39.0052,-77.4050,31251
Holladay,UT,Salt Lake,40.6600,-111.8226,31236
New Smyrna Beach,FL,Volusia,29.0249,-80.9652,31212
Santa Paula,CA,Ventura,34.3545,-119.0656,31202
Port Chester,NY,Westchester,41.0051,-73.6680,31162
Haines City,FL,Polk,28.1102,-81.6157,31156
SeaTac,WA,King,47.4444,-122.2986,31143
Lawndale,CA,Los Angeles,33.8884,-118.3531,31113
Alamogordo,NM,Otero,32.8837,-105.9625,31063
Southlake,TX,Tarrant,32.9545,-97.1503,31044
North Royalton,OH,Cuyahoga,41.3138,-81.7450,31013
Hopkinsville,KY,Christian,36.8381,-87.4775,31011
Northport,AL,Tuscaloosa,33.2586,-87.5993,30991
Bella Vista,AR,Benton,36.4667,-94.2707,30935
Laguna Hills,CA,Orange,33.5918,-117.6991,30921
Springfield,VA,Fairfax,38.7810,-77.1839,30894
Ballwin,MO,St. Louis,38.5950,-90.5500,30835
Sanford,NC,Lee,35.4875,-79.1770,30833
La Verne,CA,Los Angeles,34.1207,-117.7703,30804
North Chicago,IL,Lake,42.3172,-87.8595,30772
Westfield,NJ,Union,40.6516,-74.3432,30760
Oakleaf Plantation,FL,Clay,30.1689,-81.8337,30737
Los Altos,CA,Santa Clara,37.3684,-122.0965,30736
Miami Lakes,FL,Miami-Dade,25.9125,-80.3214,30731
Washington,UT,Washington,37.1303,-113.4878,30686
Banning,CA,Riverside,33.9460,-116.8992,30680
West Falls Church,VA,Fairfax,38.8648,-77.1878,30660
Lawrenceville,GA,Gwinnett,33.9523,-83.9932,30626
Eldersburg,MD,Carroll,39.4041,-76.9528,30626
Franklin Square,NY,Nassau,40.7002,-73.6775,30559
Burlingame,CA,San Mateo,37.5859,-122.3667,30526
Gurnee,IL,Lake,42.3708,-87.9392,30486
Morrisville,NC,Wake,35.8368,-78.8348,30471
Ferry Pass,FL,Escambia,30.5205,-87.1899,30467
Princeton,NJ,Mercer,40.3562,-74.6693,30451
Liberty,MO,Clay,39.2394,-94.4191,30446
Redan,GA,DeKalb,33.7394,-84.1644,30426
Parkville,MD,Baltimore,39.3832,-76.5519,30423
Chamblee,GA,DeKalb,33.8842,-84.3007,30369
North Tonawanda,NY,Niagara,43.0457,-78.8659,30338
Saratoga,CA,Santa Clara,37.2684,-122.0263,30335
Brownsburg,IN,Hendricks,39.8337,-86.3830,30310
Newark,DE,New Castle,39.6776,-75.7576,30309
Granger,IN,St. Joseph,41.7374,-86.1348,30279
Niles,IL,Cook,42.0278,-87.8099,30262
Highland Park,IL,Lake,42.1823,-87.8104,30229
Middletown,NY,Orange,41.4459,-74.4236,30227
Austintown,OH,Mahoning,41.0932,-80.7405,30215
Summerlin South,NV,Clark,36.1242,-115.3324,30075
Ruskin,FL,Hillsborough,27.7065,-82.4209,30074
McDonough,GA,Henry,33.4397,-84.1505,30056
Bowling Green,OH,Wood,41.3776,-83.6495,30051
Drexel Hill,PA,Delaware,39.9495,-75.3038,30015
Matthews,NC,Mecklenburg,35.1195,-80.7101,29959
Fridley,MN,Anoka,45.0841,-93.2595,29944
Paragould,AR,Greene,36.0555,-90.5149,29940
Greenville,TX,Hunt,33.1116,-96.1099,29936
Winter Park,FL,Orange,28.5989,-81.3442,29929
Algonquin,IL,McHenry,42.1629,-88.3159,29904
Hazleton,PA,Luzerne,40.9505,-75.9725,29886
Crofton,MD,Anne Arundel,39.0144,-76.6800,29878
Gloucester,MA,Essex,42.6260,-70.6897,29862
San Carlos,CA,San Mateo,37.4982,-122.2677,29797
Monterey,CA,Monterey,36.5919,-121.8808,29772
Rahway,NJ,Union,40.6077,-74.2807,29748
Atascadero,CA,San Luis Obispo,35.4827,-120.6858,29735
Orchards,WA,Clark,45.6890,-122.5306,29716
Galesburg,IL,Knox,40.9506,-90.3763,29653
Hobart,IN,Lake,41.5140,-87.2729,29646
Schererville,IN,Lake,41.4861,-87.4442,29627
Central,LA,East Baton Rouge,30.5593,-91.0369,29603
Laurel,MD,Prince George's,39.0949,-76.8622,29594
Raytown,MO,Jackson,38.9944,-94.4641,29593
Anderson,SC,Anderson,34.5211,-82.6478,29563
Southgate,MI,Wayne,42.2047,-83.2057,29551
Burton,MI,Genesee,42.9974,-83.6175,29529
Melrose,MA,Middlesex,42.4556,-71.0590,29488
Magna,UT,Salt Lake,40.7634,-112.1599,29488
Casselberry,FL,Seminole,28.6624,-81.3217,29473
San Lorenzo,CA,Alameda,37.6733,-122.1332,29453
Eastern Goleta Valley,CA,Santa Barbara,34.4448,-119.7879,29411
Bixby,OK,Tulsa,35.9454,-95.8776,29402
Oak Park,MI,Oakland,42.4649,-83.1824,29370
Garfield Heights,OH,Cuyahoga,41.4199,-81.6038,29369
Vero Beach South,FL,Indian River,27.6132,-80.4163,29365
Fleming Island,FL,Clay,30.0988,-81.7124,29351
Texarkana,AR,Miller,33.4360,-93.9959,29343
Englewood,NJ,Bergen,40.8917,-73.9736,29342
Fountain,CO,El Paso,38.6886,-104.6829,29327
Kirkwood,MO,St. Louis,38.5788,-90.4203,29302
Jacksonville,AR,Pulaski,34.8807,-92.1304,29285
Harrison,NY,Westchester,41.0236,-73.7193,29279
Clarksburg,MD,Montgomery,39.2246,-77.2659,29246
Suisun City,CA,Solano,38.2473,-122.0091,29205
Statesville,NC,Iredell,35.7842,-80.8713,29161
East Palo Alto,CA,San Mateo,37.4671,-122.1352,29143
Mehlville,MO,St. Louis,38.5018,-90.3149,29089
Easton,PA,Northampton,40.6858,-75.2209,29079
Sachse,TX,Dallas,32.9726,-96.5793,29075
East Lake-Orient Park,FL,Hillsborough,27.9970,-82.3653,29064
Russellville,AR,Pope,35.2762,-93.1383,29057
Independence,KY,Kenton,38.9510,-84.5492,29024
Shaker Heights,OH,Cuyahoga,41.4744,-81.5496,29004
Enterprise,AL,Coffee,31.3275,-85.8463,28990
Jeffersontown,KY,Jefferson,38.2049,-85.5701,28988
Perry Hall,MD,Baltimore,39.4068,-76.4780,28908
Lake in the Hills,IL,McHenry,42.1913,-88.3477,28853
Greenville,MS,Washington,33.3850,-91.0514,28833
Burbank,IL,Cook,41.7444,-87.7686,28822
Golden Gate,FL,Collier,26.1844,-81.7031,28767
Converse,TX,Bexar,29.5091,-98.3084,28764
Twentynine Palms,CA,San Bernardino,34.1478,-116.0659,28738
Daphne,AL,Baldwin,30.6263,-87.8816,28673
Danville,IL,Vermilion,40.1426,-87.6111,28663
Northampton,MA,Hampshire,42.3266,-72.6745,28640
Carney,MD,Baltimore,39.4050,-76.5235,28624
East Niles,CA,Kern,35.3683,-118.9225,28586
Temescal Valley,CA,Riverside,33.7581,-117.4677,28560
Forest Hills,MI,Kent,42.9577,-85.4895,28494
Laplace,LA,St. John the Baptist,30.0731,-90.4758,28480
Frankfort,KY,Franklin,38.1924,-84.8643,28452
Lansing,IL,Cook,41.5648,-87.5462,28415
Madison Heights,MI,Oakland,42.5073,-83.1034,28411
Jamestown,NY,Chautauqua,42.0976,-79.2367,28401
Monroeville,PA,Allegheny,40.4262,-79.7605,28383
Apollo Beach,FL,Hillsborough,27.7618,-82.4003,28347
Aberdeen,SD,Brown,45.4649,-98.4686,28297
Fort Mill,SC,York,35.0061,-80.9389,28281
Rockledge,FL,Brevard,28.3203,-80.7360,28279
Glen Ellyn,IL,DuPage,41.8666,-88.0629,28270
Bergenfield,NJ,Bergen,40.9236,-73.9982,28269
Fortuna Foothills,AZ,Yuma,32.6616,-114.3974,28227
Forney,TX,Kaufman,32.7440,-96.4529,28222
Eagle Pass,TX,Maverick,28.7125,-100.4840,28186
Short Pump,VA,Henrico,37.6549,-77.6201,28177
Citrus Park,FL,Hillsborough,28.0730,-82.5628,28163
Chaska,MN,Carver,44.8164,-93.6091,28146
Ridgecrest,CA,Kern,35.6308,-117.6622,28138
Allen Park,MI,Wayne,42.2595,-83.2107,28128
Maple Valley,WA,King,47.3659,-122.0368,28121
Oakdale,MN,Washington,44.9876,-92.9641,28109
Glen Cove,NY,Nassau,40.8709,-73.6287,28101
Ramsey,MN,Anoka,45.2617,-93.4494,28070
Crestview,FL,Okaloosa,30.7477,-86.5785,28046
Clayton,NC,Johnston,35.6590,-78.4498,28043
Tysons,VA,Fairfax,38.9215,-77.2273,28022
Henderson,KY,Henderson,37.8397,-87.5798,27994
Maryland Heights,MO,St. Louis,38.7189,-90.4749,27981
Williston,ND,Williams,48.1814,-103.6364,27964
New Iberia,LA,Iberia,30.0049,-91.8202,27926
Lake Jackson,TX,Brazoria,29.0516,-95.4521,27902
Huntley,IL,McHenry,42.1599,-88.4330,27859
Walnut,CA,Los Angeles,34.0334,-117.8593,27857
Prior Lake,MN,Scott,44.7246,-93.4419,27832
Hamtramck,MI,Wayne,42.3954,-83.0559,27830
Shirley,NY,Suffolk,40.7936,-72.8748,27807
Monsey,NY,Rockland,41.1181,-74.0682,27787
Garden City,KS,Finney,37.9753,-100.8527,27781
Madison,MS,Madison,32.4738,-90.1300,27775
McHenry,IL,McHenry,42.3387,-88.2932,27774
Reisterstown,MD,Baltimore,39.4550,-76.8140,27764
South Laurel,MD,Prince George's,39.0603,-76.8456,27736
Tualatin,OR,Washington,45.3772,-122.7748,27710
Alvin,TX,Brazoria,29.3872,-95.2938,27700
Homewood,AL,Jefferson,33.4619,-86.8090,27697
Mount Pleasant,WI,Racine,42.7129,-87.8876,27694
Dodge City,KS,Ford,37.7611,-100.0182,27652
West Melbourne,FL,Brevard,28.0694,-80.6736,27643
Drexel Heights,AZ,Pima,32.1453,-111.0480,27636
Williamsport,PA,Lycoming,41.2399,-77.0370,27629
Lochearn,MD,Baltimore,39.3461,-76.7307,27591
Silver Springs Shores,FL,Marion,29.1126,-82.0149,27556
Ilchester,MD,Howard,39.2187,-76.7683,27552
Wilmette,IL,Cook,42.0771,-87.7282,27550
Belmont,CA,San Mateo,37.5154,-122.2953,27505
Mililani Town,HI,Honolulu,21.4465,-158.0147,27495
Marshalltown,IA,Marshall,42.0343,-92.9068,27491
Lemon Grove,CA,San Diego,32.7331,-117.0344,27489
Athens,AL,Limestone,34.7843,-86.9503,27474
Pearl,MS,Rankin,32.2730,-90.0918,27458
New Lenox,IL,Will,41.5095,-87.9703,27456
Kernersville,NC,Forsyth,36.1065,-80.0842,27439
Millville,NJ,Cumberland,39.3903,-75.0561,27432
Clinton,MS,Hinds,32.3540,-90.3403,27418
Neenah,WI,Winnebago,44.1669,-88.4767,27409
Marion,IN,Grant,40.5497,-85.6604,27384
Green,OH,Summit,40.9483,-81.4757,27381
Asheboro,NC,Randolph,35.7158,-79.8127,27353
Deer Park,NY,Suffolk,40.7623,-73.3218,27334
Fremont,NE,Dodge,41.4395,-96.4873,27321
Union City,GA,Fulton,33.5942,-84.5629,27300
Thomasville,NC,Davidson,35.8813,-80.0807,27261
Pooler,GA,Chatham,32.1043,-81.2569,27235
Wright,FL,Okaloosa,30.4445,-86.6419,27233
New London,CT,Southeastern Connecticut,41.3502,-72.1022,27199
Kent,OH,Portage,41.1490,-81.3610,27190
Balch Springs,TX,Dallas,32.7194,-96.6151,27181
Celina,TX,Collin,33.3154,-96.7941,27141
Mason City,IA,Cerro Gordo,43.1487,-93.1997,27135
Lindenhurst,NY,Suffolk,40.6858,-73.3710,27106
Gladstone,MO,Clay,39.2134,-94.5592,27069
Kahului,HI,Maui,20.8715,-156.4603,27068
West Linn,OR,Clackamas,45.3670,-122.6399,27065
Carrollton,GA,Carroll,33.5818,-85.0838,27058
Lemoore,CA,Kings,36.2949,-119.7983,27023
Wooster,OH,Wayne,40.8172,-81.9336,27012
Sun City West,AZ,Maricopa,33.6695,-112.3573,27003
Fulshear,TX,Fort Bend,29.6930,-95.8804,26986
Waukee,IA,Dallas,41.5985,-93.8869,26974
Mint Hill,NC,Mecklenburg,35.1783,-80.6528,26954
Chicago Heights,IL,Cook,41.5100,-87.6345,26938
Brawley,CA,Imperial,32.9783,-115.5287,26934
Temple Terrace,FL,Hillsborough,28.0436,-82.3773,26922
Leisure City,FL,Miami-Dade,25.4935,-80.4363,26917
Garden City,MI,Wayne,42.3244,-83.3412,26910
Paducah,KY,McCracken,37.0711,-88.6440,26894
Oak Forest,IL,Cook,41.6054,-87.7527,26888
Plum,PA,Allegheny,40.5024,-79.7495,26873
Palm Springs,FL,Palm Beach,26.6348,-80.0969,26871
Benicia,CA,Solano,38.0725,-122.1526,26861
Woodburn,OR,Marion,45.1472,-122.8603,26845
Kalispell,MT,Flathead,48.2153,-114.3274,26830
South Portland,ME,Cumberland,43.6310,-70.2895,26780
Camas,WA,Clark,45.6005,-122.4304,26779
Vernon Hills,IL,Lake,42.2340,-87.9608,26772
Ewa Gentry,HI,Honolulu,21.3344,-158.0262,26738
Cabot,AR,Lonoke,34.9766,-92.0274,26733
Lutz,FL,Hillsborough,28.1396,-82.4467,26731
Batavia,IL,Kane,41.8479,-88.3109,26730
Shoreview,MN,Ramsey,45.0842,-93.1358,26724
Keystone,FL,Hillsborough,28.1312,-82.5999,26723
Palm River-Clair Mel,FL,Hillsborough,27.9239,-82.3791,26719
Troy,OH,Miami,40.0437,-84.2186,26716
Wheeling,WV,Ohio,40.0752,-80.6951,26670
Granite City,IL,Madison,38.7296,-90.1268,26670
Horn Lake,MS,DeSoto,34.9512,-90.0501,26622
West Islip,NY,Suffolk,40.7041,-73.2954,26559
Superior,WI,Douglas,46.6941,-92.0823,26550
Edwardsville,IL,Madison,38.7922,-89.9874,26543
Marysville,OH,Union,40.2279,-83.3595,26540
Jenks,OK,Tulsa,35.9981,-95.9736,26519
Tumwater,WA,Thurston,46.9891,-122.9175,26519
Sanger,CA,Fresno,36.6990,-119.5575,26515
Rosemount,MN,Dakota,44.7466,-93.0661,26509
Paramus,NJ,Bergen,40.9455,-74.0712,26500
Auburn,NY,Cayuga,42.9338,-76.5685,26475
Venice,FL,Sarasota,27.1184,-82.4137,26467
Owatonna,MN,Steele,44.0912,-93.2312,26462
Forest Grove,OR,Washington,45.5243,-123.1097,26406
Carolina Forest,SC,Horry,33.7651,-78.9130,26373
Elk River,MN,Sherburne,45.3314,-93.5670,26367
Elmira,NY,Chemung,42.0938,-76.8097,26349
Woodstock,IL,McHenry,42.3096,-88.4353,26316
Leland,NC,Brunswick,34.2042,-78.0279,26307
Eureka,CA,Humboldt,40.7943,-124.1564,26302
South Pasadena,CA,Los Angeles,34.1103,-118.1573,26297
South Salt Lake,UT,Salt Lake,40.7057,-111.8986,26277
Holbrook,NY,Suffolk,40.7944,-73.0700,26256
Plainview,NY,Nassau,40.7832,-73.4732,26251
Hercules,CA,Contra Costa,38.0064,-122.2564,26245
Lockport,IL,Will,41.5906,-88.0293,26228
Wasco,CA,Kern,35.5938,-119.3671,26222
Wilsonville,OR,Clackamas,45.3109,-122.7702,26183
Elkridge,MD,Howard,39.1941,-76.7428,26183
Fairland,MD,Montgomery,39.0803,-76.9527,26183
Trussville,AL,Jefferson,33.6405,-86.5815,26182
Windsor,CA,Sonoma,38.5422,-122.8089,26179
Austin,MN,Mower,43.6721,-92.9784,26167
East Chicago,IN,Lake,41.6469,-87.4545,26158
Ives Estates,FL,Miami-Dade,25.9632,-80.1830,26154
Oxford,MS,Lafayette,34.3627,-89.5336,26086
Conway,SC,Horry,33.8401,-79.0431,26082
Ridgewood,NJ,Bergen,40.9821,-74.1127,26076
Medina,OH,Medina,41.1358,-81.8695,26040
North Tustin,CA,Orange,33.7636,-117.7947,26038
Cave Spring,VA,Roanoke,37.2254,-80.0072,26014
Chanhassen,MN,Carver,44.8546,-93.5621,26001
Franklin,IN,Johnson,39.4948,-86.0544,25999
Winona,MN,Winona,44.0505,-91.6684,25998
Norfolk,NE,Madison,42.0324,-97.4217,25962
Florence,AZ,Pinal,33.0590,-111.4209,25961
Kuna,ID,Ada,43.4880,-116.3933,25960
Lodi,NJ,Bergen,40.8784,-74.0814,25946
Fish Hawk,FL,Hillsborough,27.8511,-82.2164,25945
Colleyville,TX,Tarrant,32.8913,-97.1486,25906
Imperial Beach,CA,San Diego,32.5693,-117.1180,25897
Moscow,ID,Latah,46.7308,-116.9986,25868
Ballenger Creek,MD,Frederick,39.3807,-77.4206,25866
Terrytown,LA,Jefferson,29.9014,-90.0279,25844
Fort Washington,MD,Prince George's,38.7339,-77.0069,25843
Key West,FL,Monroe,24.5642,-81.7775,25824
Grandview,MO,Jackson,38.8802,-94.5227,25821
Derby,KS,Sedgwick,37.5571,-97.2551,25801
Fort Hood,TX,Coryell,31.1357,-97.7834,25786
El Cerrito,CA,Contra Costa,37.9196,-122.3025,25781
Rockville Centre,NY,Nassau,40.6643,-73.6383,25770
Staunton,VA,Staunton,38.1593,-79.0611,25765
Sebastian,FL,Indian River,27.7822,-80.4819,25759
Allendale,MI,Ottawa,42.9845,-85.9499,25741
Palm City,FL,Martin,27.1735,-80.2862,25699
Columbine,CO,Jefferson,39.5879,-105.0694,25681
Medford,NY,Suffolk,40.8220,-72.9859,25681
Galt,CA,Sacramento,38.2698,-121.3004,25665
Bessemer,AL,Jefferson,33.3712,-86.9728,25655
Pace,FL,Santa Rosa,30.6188,-87.1667,25630
Immokalee,FL,Collier,26.4253,-81.4251,25624
Newberg,OR,Yamhill,45.3075,-122.9601,25622
Starkville,MS,Oktibbeha,33.4608,-88.8297,25611
Inkster,MI,Wayne,42.2935,-83.3148,25602
Moses Lake,WA,Grant,47.1279,-119.2759,25594
South Bradenton,FL,Manatee,27.4612,-82.5822,25585
Nocatee,FL,St. Johns,30.0927,-81.4095,25581
Cliffside Park,NJ,Bergen,40.8222,-73.9879,25580
Happy Valley,OR,Clackamas,45.4358,-122.5081,25572
Xenia,OH,Greene,39.6829,-83.9413,25555
Tarpon Springs,FL,Pinellas,28.1493,-82.7623,25522
Okemos,MI,Ingham,42.7057,-84.4135,25503
Stevens Point,WI,Portage,44.5241,-89.5507,25497
Peekskill,NY,Westchester,41.2884,-73.9227,25484
Salem,VA,Salem,37.2864,-80.0555,25477
Mill Creek East,WA,Snohomish,47.8361,-122.1877,25461
West Whittier-Los Nietos,CA,Los Angeles,33.9759,-118.0689,25459
Bailey's Crossroads,VA,Fairfax,38.8477,-77.1305,25458
Avon Lake,OH,Lorain,41.4944,-82.0159,25456
Reedley,CA,Fresno,36.5988,-119.4471,25446
West Chicago,IL,DuPage,41.8960,-88.2253,25434
Northdale,FL,Hillsborough,28.1058,-82.5263,25420
De Pere,WI,Brown,44.4308,-88.0785,25368
Ottumwa,IA,Wapello,41.0195,-92.4186,25352
Brandon,MS,Rankin,32.2778,-89.9896,25352
Denison,TX,Grayson,33.7672,-96.5808,25347
Corsicana,TX,Navarro,32.0824,-96.4665,25344
Caledonia,WI,Racine,42.7986,-87.8762,25292
Sugar Hill,GA,Gwinnett,34.1080,-84.0558,25285
Mercer Island,WA,King,47.5661,-122.2320,25282
Lafayette,CA,Contra Costa,37.8919,-122.1189,25277
Holt,MI,Ingham,42.6416,-84.5308,25275
Mequon,WI,Ozaukee,43.2352,-87.9839,25259
Dickinson,ND,Stark,46.8918,-102.7925,25216
Hazelwood,MO,St. Louis,38.7931,-90.3899,25214
Norco,CA,Riverside,33.9252,-117.5498,25211
North Laurel,MD,Howard,39.1285,-76.8476,25201
Walker,MI,Kent,42.9853,-85.7446,25201
Dinuba,CA,Tulare,36.5453,-119.3987,25201
Barstow,CA,San Bernardino,34.8661,-117.0471,25198
Carteret,NJ,Middlesex,40.5849,-74.2284,25187
Edgewood,MD,Harford,39.4190,-76.2964,25170
Muskego,WI,Waukesha,42.8860,-88.1291,25156
Simpsonville,SC,Greenville,34.7287,-82.2569,25125
Mountain House,CA,San Joaquin,37.7673,-121.5449,25108
University Park,TX,Dallas,32.8506,-96.7937,25104
Avon,OH,Lorain,41.4485,-82.0187,25082
Perrysburg,OH,Wood,41.5377,-83.6413,25065
Kingsville,TX,Kleberg,27.5094,-97.8610,25061
Bellview,FL,Escambia,30.4620,-87.3120,25051
Dix Hills,NY,Suffolk,40.8033,-73.3375,25042
Newport,RI,Newport,41.4801,-71.3203,25029
King of Prussia,PA,Montgomery,40.0963,-75.3821,25025
Loma Linda,CA,San Bernardino,34.0450,-117.2498,25021
Hastings,NE,Adams,40.5961,-98.3900,25005
Norton Shores,MI,Muskegon,43.1621,-86.2519,25000
Barberton,OH,Summit,41.0095,-81.6037,24977
Romulus,MI,Wayne,42.2237,-83.3660,24951
Farmington,UT,Davis,40.9845,-111.9065,24934
North Augusta,SC,Aiken,33.5214,-81.9547,24928
Auburn Hills,MI,Oakland,42.6735,-83.2448,24911
Riverbank,CA,Stanislaus,37.7260,-120.9433,24881
Seal Beach,CA,Orange,33.7542,-118.0714,24868
Westchase,FL,Hillsborough,28.0597,-82.6110,24818
Centerville,OH,Montgomery,39.6339,-84.1449,24815
Yukon,OK,Canadian,35.5201,-97.7639,24802
Pecan Grove,TX,Fort Bend,29.6235,-95.7330,24798
Fort Dodge,IA,Webster,42.5098,-94.1751,24788
Big Spring,TX,Howard,32.2389,-101.4799,24769
Ardmore,OK,Carter,34.1949,-97.1256,24757
Sandusky,OH,Erie,41.4468,-82.7024,24748
Zanesville,OH,Muskingum,39.9565,-82.0132,24726
Morton Grove,IL,Cook,42.0423,-87.7890,24687
Paris,TX,Lamar,33.6688,-95.5460,24678
San Benito,TX,Cameron,26.1298,-97.6440,24677
Suitland,MD,Prince George's,38.8492,-76.9225,24667
Cloverleaf,TX,Harris,29.7882,-95.1724,24630
Socastee,SC,Horry,33.6871,-79.0086,24629
Belton,MO,Cass,38.8192,-94.5335,24618
Port St. John,FL,Brevard,28.4757,-80.8104,24617
Bainbridge Island,WA,Kitsap,47.6439,-122.5434,24607
Maywood,CA,Los Angeles,33.9886,-118.1877,24593
Wyandotte,MI,Wayne,42.2113,-83.1558,24593
Selma,CA,Fresno,36.5715,-119.6143,24586
Watertown,NY,Jefferson,43.9734,-75.9094,24574
Greenbelt,MD,Prince George's,38.9953,-76.8885,24572
Landover,MD,Prince George's,38.9241,-76.8875,24558
Ridgeland,MS,Madison,32.4236,-90.1481,24548
Kerrville,TX,Kerr,30.0398,-99.1320,24532
Herndon,VA,Fairfax,38.9699,-77.3867,24529
Homer Glen,IL,Will,41.6043,-87.9497,24516
Melrose Park,IL,Cook,41.9030,-87.8636,24513
Belvidere,IL,Boone,42.2543,-88.8649,24510
Pelham,AL,Shelby,33.3114,-86.7573,24510
World Golf Village,FL,St. Johns,29.9654,-81.4896,24485
Fairfax,VA,Fairfax,38.8531,-77.2997,24478
Soledad,CA,Monterey,36.4432,-121.3426,24476
Decatur,GA,DeKalb,33.7711,-84.2963,24470
Saginaw,TX,Tarrant,32.8657,-97.3654,24467
Zion,IL,Lake,42.4603,-87.8511,24466
Faribault,MN,Rice,44.2996,-93.2789,24458
Riverside,OH,Montgomery,39.7835,-84.1219,24432
Benbrook,TX,Tarrant,32.6788,-97.4637,24430
Clinton,IA,Clinton,41.8435,-90.2412,24425
Oak Harbor,WA,Island,48.2964,-122.6333,24396
Oak Ridge,FL,Orange,28.4727,-81.4169,24395
Ponca City,OK,Kay,36.7235,-97.0677,24377
Bloomington,CA,San Bernardino,34.0601,-117.4013,24324
Farragut,TN,Knox,35.8731,-84.1821,24309
Greenfield,IN,Hancock,39.7937,-85.7738,24308
Patterson,CA,Stanislaus,37.4758,-121.1536,24306
Wadsworth,OH,Medina,41.0279,-81.7323,24302
Auburn,ME,Androscoggin,44.0851,-70.2492,24294
Mandan,ND,Morton,46.8290,-100.8870,24293
Palmetto Bay,FL,Miami-Dade,25.6219,-80.3221,24247
South Plainfield,NJ,Middlesex,40.5748,-74.4152,24231
Frederickson,WA,Pierce,47.0916,-122.3603,24219
Westmont,IL,DuPage,41.7948,-87.9742,24201
Johnston,IA,Polk,41.6910,-93.7234,24196
Columbus,NE,Platte,41.4366,-97.3565,24188
Liberty Triangle,FL,Marion,29.0760,-82.2191,24178
West Memphis,AR,Crittenden,35.1530,-90.1996,24147
Lexington,SC,Lexington,33.9890,-81.2202,24132
Nixa,MO,Christian,37.0453,-93.2959,24131
Collinsville,IL,Madison,38.6770,-90.0063,24126
Shelbyville,TN,Bedford,35.4987,-86.4517,24125
Wekiwa Springs,FL,Seminole,28.6984,-81.4251,24109
Emporia,KS,Lyon,38.4028,-96.1932,24098
Fresno,TX,Fort Bend,29.5357,-95.4696,24087
Middletown,DE,New Castle,39.4450,-75.7183,24071
Bay Point,CA,Contra Costa,38.0329,-121.9615,24065
Papillion,NE,Sarpy,41.1511,-96.0665,24063
Coral Terrace,FL,Miami-Dade,25.7464,-80.3049,24051
White Bear Lake,MN,Ramsey,45.0656,-93.0150,24026
Gardner,KS,Johnson,38.8122,-94.9275,24020
Brambleton,VA,Loudoun,38.9803,-77.5323,23999
North Potomac,MD,Montgomery,39.0955,-77.2373,23994
South Elgin,IL,Kane,41.9906,-88.3135,23984
Elmwood Park,IL,Cook,41.9225,-87.8163,23982
Rolling Meadows,IL,Cook,42.0747,-88.0252,23981
Bloomingdale,FL,Hillsborough,27.8784,-82.2624,23979
Solon,OH,Cuyahoga,41.3865,-81.4400,23970
Kingston,NY,Ulster,41.9295,-73.9968,23942
Easley,SC,Pickens,34.8188,-82.5827,23942
Willoughby,OH,Lake,41.6459,-81.4084,23934
Katy,TX,Waller,29.7905,-95.8353,23900
Arnold,MD,Anne Arundel,39.0437,-76.4974,23866
Somerset,NJ,Somerset,40.5083,-74.5010,23851
Raymore,MO,Cass,38.8029,-94.4583,23849
Pickerington,OH,Fairfield,39.8890,-82.7678,23828
Burlington,IA,Des Moines,40.8071,-91.1247,23800
Bayonet Point,FL,Pasco,28.3254,-82.6834,23787
Roseburg,OR,Douglas,43.2231,-123.3520,23773
Webster Groves,MO,St. Louis,38.5866,-90.3544,23771
Belton,TX,Bell,31.0525,-97.4790,23769
Fountain Hills,AZ,Maricopa,33.6073,-111.7398,23768
Highland,IN,Lake,41.5483,-87.4588,23749
Chantilly,VA,Fairfax,38.8868,-77.4453,23744
Munster,IN,Lake,41.5468,-87.5040,23733
San Fernando,CA,Los Angeles,34.2886,-118.4362,23716
Brookings,SD,Brookings,44.3022,-96.7859,23710
Taylors,SC,Greenville,34.9157,-82.3124,23686
Farmington,MN,Dakota,44.6572,-93.1687,23675
North Lynnwood,WA,Snohomish,47.8533,-122.2762,23653
Griffin,GA,Spalding,33.2418,-84.2748,23650
Marshall,TX,Harrison,32.5370,-94.3515,23646
Freeport,IL,Stephenson,42.2891,-89.6346,23636
Fernley,NV,Lyon,39.5627,-119.1906,23631
Cartersville,GA,Bartow,34.1644,-84.8009,23617
Columbus,MS,Lowndes,33.5088,-88.4096,23616
Ladera Ranch,CA,Orange,33.5492,-117.6417,23609
Jacksonville Beach,FL,Duval,30.2782,-81.4045,23601
Kenmore,WA,King,47.7516,-122.2489,23594
Eustis,FL,Lake,28.8563,-81.6771,23567
Muscatine,IA,Muscatine,41.4195,-91.0680,23567
Van Buren,AR,Crawford,35.4483,-94.3528,23545
East San Gabriel,CA,Los Angeles,34.1157,-118.0791,23521
Chester,VA,Chesterfield,37.3531,-77.4342,23519
Clinton,UT,Davis,41.1395,-112.0656,23492
Eastmont,WA,Snohomish,47.8968,-122.1818,23486
Champlin,MN,Hennepin,45.1702,-93.3903,23450
Rosemont,CA,Sacramento,38.5478,-121.3553,23448
Cherry Hill,VA,Prince William,38.5696,-77.2895,23443
Brent,FL,Escambia,30.4727,-87.2495,23441
Blue Island,IL,Cook,41.6578,-87.6811,23416
Lisle,IL,DuPage,41.7918,-88.0888,23413
Pottstown,PA,Montgomery,40.2508,-75.6445,23392
Glassboro,NJ,Gloucester,39.7014,-75.1113,23375
Fairhope,AL,Baldwin,30.5209,-87.8813,23360
Maple Heights,OH,Cuyahoga,41.4094,-81.5625,23350
Watauga,TX,Tarrant,32.8719,-97.2515,23336
Copiague,NY,Suffolk,40.6707,-73.3922,23332
Edgewater,FL,Volusia,28.9594,-80.9406,23314
Waverly,MI,Eaton,42.7401,-84.6354,23301
Union Hill-Novelty Hill,WA,King,47.6788,-122.0284,23272
Cockeysville,MD,Baltimore,39.4804,-76.6294,23265
North Salt Lake,UT,Davis,40.8439,-111.9187,23239
Rock Springs,WY,Sweetwater,41.5947,-109.2209,23229
Linda,CA,Yuba,39.1241,-121.5421,23215
Athens,OH,Athens,39.3270,-82.0987,23211
Loves Park,IL,Winnebago,42.3364,-88.9975,23185
Maywood,IL,Cook,41.8798,-87.8442,23173
Cottage Lake,WA,King,47.7466,-122.0755,23170
Oakdale,CA,Stanislaus,37.7618,-120.8468,23155
Jasmine Estates,FL,Pasco,28.2930,-82.6907,23151
Searcy,AR,White,35.2418,-91.7351,23115
Hazel Dell,WA,Clark,45.6797,-122.6553,23086
Horizon City,TX,El Paso,31.6799,-106.1903,23069
Trotwood,OH,Montgomery,39.7926,-84.3165,23041
Ensley,FL,Escambia,30.5259,-87.2733,23036
Kapolei,HI,Honolulu,21.3399,-158.0677,23033
North Platte,NE,Lincoln,41.1263,-100.7641,23030
Hudson,OH,Summit,41.2399,-81.4408,23007
Radcliff,KY,Hardin,37.8204,-85.9365,22967
Hopewell,VA,Hopewell,37.2915,-77.2985,22944
Prairie Village,KS,Johnson,38.9874,-94.6362,22937
Keene,NH,Cheshire,42.9494,-72.2998,22923
West Springfield,VA,Fairfax,38.7771,-77.2268,22905
New Brighton,MN,Ramsey,45.0658,-93.2060,22900
Watertown,WI,Jefferson,43.1893,-88.7285,22873
Duncan,OK,Stephens,34.5408,-97.9215,22872
Calabasas,CA,Los Angeles,34.1375,-118.6689,22869
Corinth,TX,Denton,33.1434,-97.0682,22868
Garden City,NY,Nassau,40.7266,-73.6447,22866
Watertown,SD,Codington,44.9094,-97.1532,22859
Coralville,IA,Johnson,41.6990,-91.5967,22846
Ramona,CA,San Diego,33.0474,-116.8766,22829
Christiansburg,VA,Montgomery,37.1406,-80.4036,22820
Ashland,CA,Alameda,37.6942,-122.1159,22784
Laguna Beach,CA,Orange,33.5455,-117.7613,22777
Bonney Lake,WA,Pierce,47.1791,-122.1700,22776
Cataño,PR,Cataño,18.4375,-66.1440,22768
Machesney Park,IL,Winnebago,42.3666,-89.0266,22744
Martha Lake,WA,Snohomish,47.8479,-122.2327,22740
Roselle,IL,DuPage,41.9809,-88.0861,22731
Vega Baja,PR,Vega Baja,18.4406,-66.3997,22730
Sun Valley,NV,Washoe,39.6104,-119.7770,22697
Crystal,MN,Hennepin,45.0377,-93.3599,22685
Avon,IN,Hendricks,39.7601,-86.3916,22683
North Plainfield,NJ,Somerset,40.6209,-74.4386,22667
Hialeah Gardens,FL,Miami-Dade,25.8878,-80.3569,22634
Corcoran,CA,Kings,36.0841,-119.5613,22626
Anthem,AZ,Maricopa,33.8560,-112.1168,22622
Bear,DE,New Castle,39.6189,-75.6808,22604
DeBary,FL,Volusia,28.8815,-81.3240,22602
Millbrae,CA,San Mateo,37.5994,-122.4023,22589
Albertville,AL,Marshall,34.2633,-86.2108,22584
Waynesboro,VA,Waynesboro,38.0674,-78.9014,22574
Kihei,HI,Maui,20.7653,-156.4454,22564
West Rancho Dominguez,CA,Los Angeles,33.9057,-118.2683,22560
Greenwood,SC,Greenwood,34.1947,-82.1542,22527
Summit,NJ,Union,40.7154,-74.3647,22512
East Peoria,IL,Tazewell,40.6736,-89.5419,22485
Central Falls,RI,Providence,41.8901,-71.3934,22481
Biddeford,ME,York,43.4673,-70.4511,22463
Villa Park,IL,DuPage,41.8865,-87.9779,22456
Roselle,NJ,Union,40.6527,-74.2599,22455
McNair,VA,Fairfax,38.9513,-77.4115,22451
Chalmette,LA,St. Bernard,29.9438,-89.9660,22447
Junction City,KS,Geary,39.0277,-96.8508,22431
Bloomingdale,IL,DuPage,41.9497,-88.0895,22388
Acworth,GA,Cobb,34.0566,-84.6716,22370
The Crossings,FL,Miami-Dade,25.6708,-80.4018,22359
Yorkville,IL,Kendall,41.6563,-88.4507,22350
Foley,AL,Baldwin,30.3983,-87.6650,22330
Cudahy,CA,Los Angeles,33.9631,-118.1830,22325
Marina,CA,Monterey,36.6810,-121.7892,22324
Hayesville,OR,Marion,44.9793,-122.9738,22309
Hillsborough,NJ,Somerset,40.5069,-74.6523,22302
Marion Oaks,FL,Marion,29.0011,-82.1953,22296
Montclair,VA,Prince William,38.6111,-77.3400,22295
Sapulpa,OK,Creek,36.0091,-96.1003,22268
Evans,CO,Weld,40.3660,-104.7390,22265
Rancho San Diego,CA,San Diego,32.7624,-116.9197,22264
Perry,GA,Houston,32.4720,-83.7283,22243
Middleton,WI,Dane,43.1064,-89.5059,22235
Ruston,LA,Lincoln,32.5328,-92.6363,22224
Payson,UT,Utah,40.0355,-111.7390,22205
West Puente Valley,CA,Los Angeles,34.0513,-117.9681,22198
Camp Springs,MD,Prince George's,38.8052,-76.9199,22174
Mountain Brook,AL,Jefferson,33.4871,-86.7400,22160
Bayou Cane,LA,Terrebonne,29.6243,-90.7510,22143
La Porte,IN,LaPorte,41.6069,-86.7142,22125
Sunny Isles Beach,FL,Miami-Dade,25.9385,-80.1246,22125
Clarksville,IN,Clark,38.3220,-85.7673,22121
Allison Park,PA,Allegheny,40.5730,-79.9603,22108
Sanford,ME,York,43.4244,-70.7573,22095
Oxford,OH,Butler,39.5061,-84.7446,22069
Oxford,AL,Calhoun,33.5967,-85.8687,22063
Langley Park,MD,Prince George's,38.9897,-76.9808,22057
Chambersburg,PA,Franklin,39.9315,-77.6556,22051
Hastings,MN,Dakota,44.7318,-92.8538,22050
East Ridge,TN,Hamilton,34.9973,-85.2285,22034
Columbia Heights,MN,Anoka,45.0484,-93.2472,22016
Winter Gardens,CA,San Diego,32.8376,-116.9268,22003
Mililani Mauka,HI,Honolulu,21.4756,-157.9948,21967
Lorton,VA,Fairfax,38.6983,-77.2164,21961
Chillicothe,OH,Ross,39.3393,-82.9939,21958
Ozark,MO,Christian,37.0365,-93.2158,21953
Golden Valley,MN,Hennepin,44.9901,-93.3591,21927
Duarte,CA,Los Angeles,34.1610,-117.9504,21921
West Carson,CA,Los Angeles,33.8229,-118.2931,21909
Klamath Falls,OR,Klamath,42.2195,-121.7754,21879
Parsippany,NJ,Morris,40.8645,-74.4135,21869
Sedalia,MO,Pettis,38.7059,-93.2340,21869
Shelby,NC,Cleveland,35.2904,-81.5451,21868
Darien,IL,DuPage,41.7448,-87.9822,21855
Lino Lakes,MN,Anoka,45.1679,-93.0830,21847
Woodlawn,VA,Fairfax,38.7332,-77.1149,21828
Massapequa,NY,Nassau,40.6676,-73.4706,21822
Merrick,NY,Nassau,40.6515,-73.5535,21816
Carbondale,IL,Jackson,37.7221,-89.2237,21813
Pascagoula,MS,Jackson,30.3666,-88.5506,21812
Suwanee,GA,Gwinnett,34.0508,-84.0686,21811
Rio Rico,AZ,Santa Cruz,31.4957,-110.9885,21798
Silver Firs,WA,Snohomish,47.8635,-122.1497,21796
Lakeside,CA,San Diego,32.8560,-116.9040,21788
Four Square Mile,CO,Arapahoe,39.6808,-104.8880,21788
Holiday,FL,Pasco,28.1864,-82.7429,21768
Yucca Valley,CA,San Bernardino,34.1234,-116.4216,21744
New Castle,PA,Lawrence,40.9956,-80.3458,21727
Harvey,LA,Jefferson,29.8876,-90.0666,21710
Selden,NY,Suffolk,40.8714,-73.0466,21707
American Canyon,CA,Napa,38.1796,-122.2583,21698
Port Hueneme,CA,Ventura,34.1618,-119.2036,21691
Hurricane,UT,Washington,37.1487,-113.3517,21677
Willowbrook,CA,Los Angeles,33.9209,-118.2356,21642
St. John,IN,Lake,41.4429,-87.4697,21639
Valinda,CA,Los Angeles,34.0400,-117.9300,21626
Birmingham,MI,Oakland,42.5446,-83.2166,21612
Dickinson,TX,Galveston,29.4548,-95.0589,21612
South Euclid,OH,Cuyahoga,41.5240,-81.5245,21606
Green Valley,AZ,Pima,31.8393,-111.0009,21581
Alliance,OH,Stark,40.9107,-81.1189,21574
Clemmons,NC,Forsyth,36.0319,-80.3861,21574
Waxhaw,NC,Union,34.9363,-80.7439,21565
Del City,OK,Oklahoma,35.4483,-97.4408,21561
Ennis,TX,Ellis,32.3254,-96.6347,21546
Seymour,IN,Jackson,38.9476,-85.8911,21536
Lindenwold,NJ,Camden,39.8173,-74.9898,21534
Florida Ridge,FL,Indian River,27.5805,-80.3848,21517
Pleasant Prairie,WI,Kenosha,42.5266,-87.8895,21515
Rocky River,OH,Cuyahoga,41.4702,-81.8525,21490
Rose Hill,VA,Fairfax,38.7872,-77.1085,21484
Tukwila,WA,King,47.4750,-122.2728,21479
North Ogden,UT,Weber,41.3123,-111.9584,21473
Helena,AL,Shelby,33.2837,-86.8791,21452
Five Corners,WA,Clark,45.6883,-122.5738,21444
Secaucus,NJ,Hudson,40.7810,-74.0659,21437
Mount Pleasant,MI,Isabella,43.5966,-84.7759,21420
Mountlake Terrace,WA,Snohomish,47.7921,-122.3077,21419
Ashland,KY,Boyd,38.4592,-82.6448,21405
New Hope,MN,Hennepin,45.0375,-93.3869,21402
Granite Bay,CA,Placer,38.7601,-121.1714,21378
East Patchogue,NY,Suffolk,40.7704,-72.9817,21364
Otsego,MN,Wright,45.2660,-93.6201,21358
Stephenville,TX,Erath,32.2147,-98.2205,21345
Ashland,OR,Jackson,42.1905,-122.6992,21343
Carlisle,PA,Cumberland,40.2000,-77.2034,21335
Gallup,NM,McKinley,35.5182,-108.7431,21333
South Lake Tahoe,CA,El Dorado,38.9393,-119.9828,21319
Stevenson Ranch,CA,Los Angeles,34.3894,-118.5883,21317
Candler-McAfee,GA,DeKalb,33.7267,-84.2723,21316
Mesquite,NV,Clark,36.8032,-114.1330,21314
Mukilteo,WA,Snohomish,47.9096,-122.3035,21312
Geneva,IL,Kane,41.8833,-88.3242,21299
